Timestamp,Rainfall (mm),station_number,station_name,station_no,latitude,longitude,biomass,coal,imports,gas,nuclear,other,hydro,solar,wind
01-Jun-18,0,577951,Carmyllie-Hume Farm,577951,56.57464969,-2.741331877,1.27965587,0,1.98562753,18.66842105,41.32864372,0,7.054757085,1.576315789,28.10657895
01-Jun-18,0,564863,Tomatin No2,564863,57.33816398,-4.013360208,1.27965587,0,1.98562753,18.66842105,41.32864372,0,7.054757085,1.576315789,28.10657895
01-Jun-18,0,15208,Dunglass,15208,55.94267446,-2.382881362,1.27965587,0,1.98562753,18.66842105,41.32864372,0,7.054757085,1.576315789,28.10657895
01-Jun-18,37,15018,Abbey St Bathans,15018,55.85329633,-2.387448356,1.27965587,0,1.98562753,18.66842105,41.32864372,0,7.054757085,1.576315789,28.10657895
01-Jun-18,27.8,234150,Aberlour,234150,57.48021805,-3.205975095,1.27965587,0,1.98562753,18.66842105,41.32864372,0,7.054757085,1.576315789,28.10657895
01-Jun-18,100,115301,Affric Lodge,115301,57.26272622,-5.005979754,1.27965587,0,1.98562753,18.66842105,41.32864372,0,7.054757085,1.576315789,28.10657895
01-Jun-18,28.6,234170,Alford,234170,57.24230294,-2.717123004,1.27965587,0,1.98562753,18.66842105,41.32864372,0,7.054757085,1.576315789,28.10657895
01-Jun-18,16.2,115302,Allanfearn,115302,57.49914747,-4.151564133,1.27965587,0,1.98562753,18.66842105,41.32864372,0,7.054757085,1.576315789,28.10657895
01-Jun-18,63.6,234151,Allnabad,234151,58.34717676,-4.644621014,1.27965587,0,1.98562753,18.66842105,41.32864372,0,7.054757085,1.576315789,28.10657895
01-Jun-18,194,115304,Allt Dearg House,115304,57.28490502,-6.187008123,1.27965587,0,1.98562753,18.66842105,41.32864372,0,7.054757085,1.576315789,28.10657895
01-Jun-18,66.6,115500,Amlaird,115500,55.66964373,-4.413260863,1.27965587,0,1.98562753,18.66842105,41.32864372,0,7.054757085,1.576315789,28.10657895
01-Jun-18,69,115501,Amod Farm,115501,55.35009103,-5.717857841,1.27965587,0,1.98562753,18.66842105,41.32864372,0,7.054757085,1.576315789,28.10657895
01-Jun-18,38.6,15198,Annfield,15198,56.06640057,-3.371633207,1.27965587,0,1.98562753,18.66842105,41.32864372,0,7.054757085,1.576315789,28.10657895
01-Jun-18,39,115506,Ashgrove,115506,55.66308049,-4.757486092,1.27965587,0,1.98562753,18.66842105,41.32864372,0,7.054757085,1.576315789,28.10657895
01-Jun-18,29.6,491811,Auchdergannach,491811,57.22063972,-3.651932222,1.27965587,0,1.98562753,18.66842105,41.32864372,0,7.054757085,1.576315789,28.10657895
01-Jun-18,68.2,15163,Auchentroig,15163,56.11221933,-4.342412217,1.27965587,0,1.98562753,18.66842105,41.32864372,0,7.054757085,1.576315789,28.10657895
01-Jun-18,97.2,14964,Auchinner,14964,56.31678388,-4.112254665,1.27965587,0,1.98562753,18.66842105,41.32864372,0,7.054757085,1.576315789,28.10657895
01-Jun-18,93,14952,Auchnafree,14952,56.47302976,-3.904678161,1.27965587,0,1.98562753,18.66842105,41.32864372,0,7.054757085,1.576315789,28.10657895
01-Jun-18,26,234161,Avochie,234161,57.50564634,-2.782377895,1.27965587,0,1.98562753,18.66842105,41.32864372,0,7.054757085,1.576315789,28.10657895
01-Jun-18,76,322556,Avonbank,322556,55.66347112,-4.051617294,1.27965587,0,1.98562753,18.66842105,41.32864372,0,7.054757085,1.576315789,28.10657895
01-Jun-18,26.8,15132,Ayton Castle,15132,55.84727645,-2.114611023,1.27965587,0,1.98562753,18.66842105,41.32864372,0,7.054757085,1.576315789,28.10657895
01-Jun-18,65.8,518147,Badbea,518147,57.86243941,-5.318746664,1.27965587,0,1.98562753,18.66842105,41.32864372,0,7.054757085,1.576315789,28.10657895
01-Jun-18,79.9,15103,Baddinsgill Reservoir,15103,55.7838821,-3.394584951,1.27965587,0,1.98562753,18.66842105,41.32864372,0,7.054757085,1.576315789,28.10657895
01-Jun-18,48,501947,Baintown Rain-gauge,501947,56.22101614,-3.042679056,1.27965587,0,1.98562753,18.66842105,41.32864372,0,7.054757085,1.576315789,28.10657895
01-Jun-18,53.2,517412,Balfron STW,517412,56.06523441,-4.333343318,1.27965587,0,1.98562753,18.66842105,41.32864372,0,7.054757085,1.576315789,28.10657895
01-Jun-18,70.2,490985,Balgray RG,490985,55.73428872,-4.5878755,1.27965587,0,1.98562753,18.66842105,41.32864372,0,7.054757085,1.576315789,28.10657895
01-Jun-18,29,115202,Balmedie STW,115202,57.25007263,-2.0473803,1.27965587,0,1.98562753,18.66842105,41.32864372,0,7.054757085,1.576315789,28.10657895
01-Jun-18,34,374852,Baluniefield,374852,56.48264025,-2.905576117,1.27965587,0,1.98562753,18.66842105,41.32864372,0,7.054757085,1.576315789,28.10657895
01-Jun-18,63,14897,Bannockburn,14897,56.09528478,-3.911816854,1.27965587,0,1.98562753,18.66842105,41.32864372,0,7.054757085,1.576315789,28.10657895
01-Jun-18,100.2,327235,Beltmoss,327235,55.98678855,-4.056528766,1.27965587,0,1.98562753,18.66842105,41.32864372,0,7.054757085,1.576315789,28.10657895
01-Jun-18,82.2,368536,Biggar Burn,368536,55.65035093,-3.543765278,1.27965587,0,1.98562753,18.66842105,41.32864372,0,7.054757085,1.576315789,28.10657895
01-Jun-18,35.4,320371,Birkie Hue,320371,58.16554218,-6.740713858,1.27965587,0,1.98562753,18.66842105,41.32864372,0,7.054757085,1.576315789,28.10657895
01-Jun-18,62.4,115516,Blackdyke Farm,115516,55.52935031,-4.326283061,1.27965587,0,1.98562753,18.66842105,41.32864372,0,7.054757085,1.576315789,28.10657895
01-Jun-18,27.8,115203,Blackhills No 2,115203,57.61017023,-3.222796593,1.27965587,0,1.98562753,18.66842105,41.32864372,0,7.054757085,1.576315789,28.10657895
01-Jun-18,93,533744,Boleside,533744,55.59164323,-2.798878774,1.27965587,0,1.98562753,18.66842105,41.32864372,0,7.054757085,1.576315789,28.10657895
01-Jun-18,77,115518,Boreland,115518,55.20254702,-3.320073284,1.27965587,0,1.98562753,18.66842105,41.32864372,0,7.054757085,1.576315789,28.10657895
01-Jun-18,56.2,101227,Bow Burn - WQMS,101227,55.44068058,-4.498633861,1.27965587,0,1.98562753,18.66842105,41.32864372,0,7.054757085,1.576315789,28.10657895
01-Jun-18,92.4,15161,Braco (Dunduff),15161,56.28192154,-3.904225732,1.27965587,0,1.98562753,18.66842105,41.32864372,0,7.054757085,1.576315789,28.10657895
01-Jun-18,92.4,115315,Braeroy Lodge,115315,56.98511362,-4.738585589,1.27965587,0,1.98562753,18.66842105,41.32864372,0,7.054757085,1.576315789,28.10657895
01-Jun-18,80.6,133144,Braidlie,133144,55.26142915,-2.824951121,1.27965587,0,1.98562753,18.66842105,41.32864372,0,7.054757085,1.576315789,28.10657895
01-Jun-18,63,115521,Brigton,115521,55.03779638,-4.566314357,1.27965587,0,1.98562753,18.66842105,41.32864372,0,7.054757085,1.576315789,28.10657895
01-Jun-18,92.8,335609,Broadside,335609,56.02806207,-3.978158502,1.27965587,0,1.98562753,18.66842105,41.32864372,0,7.054757085,1.576315789,28.10657895
01-Jun-18,121.2,14987,Brockhoperig,14987,55.4061286,-3.211513384,1.27965587,0,1.98562753,18.66842105,41.32864372,0,7.054757085,1.576315789,28.10657895
01-Jun-18,79.8,115523,Burnfoot (Hawknest),115523,55.66513433,-3.895712474,1.27965587,0,1.98562753,18.66842105,41.32864372,0,7.054757085,1.576315789,28.10657895
01-Jun-18,69.6,335612,Bush,335612,55.86190844,-3.206554074,1.27965587,0,1.98562753,18.66842105,41.32864372,0,7.054757085,1.576315789,28.10657895
01-Jun-18,61.4,234176,Cabrach,234176,57.34816,-3.034565786,1.27965587,0,1.98562753,18.66842105,41.32864372,0,7.054757085,1.576315789,28.10657895
01-Jun-18,72.6,523676,Cairngorm Raingauge and Snow Scale,523676,57.127702,-3.662955858,1.27965587,0,1.98562753,18.66842105,41.32864372,0,7.054757085,1.576315789,28.10657895
01-Jun-18,82.2,115526,Caldercruix STW,115526,55.88933558,-3.904553259,1.27965587,0,1.98562753,18.66842105,41.32864372,0,7.054757085,1.576315789,28.10657895
01-Jun-18,35,338380,Cambo Sands,338380,56.3008799,-2.650067453,1.27965587,0,1.98562753,18.66842105,41.32864372,0,7.054757085,1.576315789,28.10657895
01-Jun-18,69.8,490984,Camphill WTW Raingauge,490984,55.75032761,-4.74461262,1.27965587,0,1.98562753,18.66842105,41.32864372,0,7.054757085,1.576315789,28.10657895
01-Jun-18,76.4,306455,Canonbie Raingauge,306455,55.07786221,-2.942088127,1.27965587,0,1.98562753,18.66842105,41.32864372,0,7.054757085,1.576315789,28.10657895
01-Jun-18,70,576753,Capenoch Raingauge,576753,55.22666817,-3.816934219,1.27965587,0,1.98562753,18.66842105,41.32864372,0,7.054757085,1.576315789,28.10657895
01-Jun-18,45.8,116042,Castle Kennedy,116042,54.90675279,-4.944931414,1.27965587,0,1.98562753,18.66842105,41.32864372,0,7.054757085,1.576315789,28.10657895
01-Jun-18,31.8,234183,Charr,234183,56.94084906,-2.619402267,1.27965587,0,1.98562753,18.66842105,41.32864372,0,7.054757085,1.576315789,28.10657895
01-Jun-18,54,15004,Chesters,15004,55.37862961,-2.589607681,1.27965587,0,1.98562753,18.66842105,41.32864372,0,7.054757085,1.576315789,28.10657895
01-Jun-18,41.4,335574,Cheyne,335574,56.97482596,-2.266470239,1.27965587,0,1.98562753,18.66842105,41.32864372,0,7.054757085,1.576315789,28.10657895
01-Jun-18,57.4,115534,Clachan-Seil,115534,56.30375755,-5.601429727,1.27965587,0,1.98562753,18.66842105,41.32864372,0,7.054757085,1.576315789,28.10657895
01-Jun-18,32.8,499810,Cleuchhead,499810,56.94774412,-2.388756894,1.27965587,0,1.98562753,18.66842105,41.32864372,0,7.054757085,1.576315789,28.10657895
01-Jun-18,45.2,115318,Coignafearn,115318,57.23285188,-4.139289943,1.27965587,0,1.98562753,18.66842105,41.32864372,0,7.054757085,1.576315789,28.10657895
01-Jun-18,150.2,115319,Coille Mhorgil,115319,57.0643694,-5.134923813,1.27965587,0,1.98562753,18.66842105,41.32864372,0,7.054757085,1.576315789,28.10657895
01-Jun-18,37.6,14921,Colliston,14921,56.61000991,-2.637841019,1.27965587,0,1.98562753,18.66842105,41.32864372,0,7.054757085,1.576315789,28.10657895
01-Jun-18,202.8,552791,Comer Farm,552791,56.20150723,-4.601310376,1.27965587,0,1.98562753,18.66842105,41.32864372,0,7.054757085,1.576315789,28.10657895
01-Jun-18,56.4,525510,Comiston Rain Gauge,525510,55.91019401,-3.21598827,1.27965587,0,1.98562753,18.66842105,41.32864372,0,7.054757085,1.576315789,28.10657895
01-Jun-18,43.2,115322,Corrimony,115322,57.33501743,-4.699729622,1.27965587,0,1.98562753,18.66842105,41.32864372,0,7.054757085,1.576315789,28.10657895
01-Jun-18,81.2,336434,Corsock,336434,55.05876816,-3.945715778,1.27965587,0,1.98562753,18.66842105,41.32864372,0,7.054757085,1.576315789,28.10657895
01-Jun-18,117.2,115541,Craigdarroch,115541,55.196659,-3.981943267,1.27965587,0,1.98562753,18.66842105,41.32864372,0,7.054757085,1.576315789,28.10657895
01-Jun-18,35.6,513003,Craigenlee Croft Raingauge,513003,54.86294592,-5.075279664,1.27965587,0,1.98562753,18.66842105,41.32864372,0,7.054757085,1.576315789,28.10657895
01-Jun-18,38.2,234190,Creed Bridge,234190,58.20454028,-6.424227928,1.27965587,0,1.98562753,18.66842105,41.32864372,0,7.054757085,1.576315789,28.10657895
01-Jun-18,71.2,15224,Crichton,15224,55.84509063,-2.988655721,1.27965587,0,1.98562753,18.66842105,41.32864372,0,7.054757085,1.576315789,28.10657895
01-Jun-18,19.4,234192,Cullen,234192,57.68712295,-2.83323079,1.27965587,0,1.98562753,18.66842105,41.32864372,0,7.054757085,1.576315789,28.10657895
01-Jun-18,21.6,498341,Culloden Battlefield,498341,57.47676464,-4.09126842,1.27965587,0,1.98562753,18.66842105,41.32864372,0,7.054757085,1.576315789,28.10657895
01-Jun-18,56.2,115544,Culzean Castle,115544,55.35068095,-4.791520726,1.27965587,0,1.98562753,18.66842105,41.32864372,0,7.054757085,1.576315789,28.10657895
01-Jun-18,53.2,115546,Dalbeattie STW,115546,54.92152642,-3.821987578,1.27965587,0,1.98562753,18.66842105,41.32864372,0,7.054757085,1.576315789,28.10657895
01-Jun-18,78.6,538510,Dalblair,538510,55.44485443,-4.1519297,1.27965587,0,1.98562753,18.66842105,41.32864372,0,7.054757085,1.576315789,28.10657895
01-Jun-18,60.6,327232,Daldowie STW,327232,55.83262494,-4.122714806,1.27965587,0,1.98562753,18.66842105,41.32864372,0,7.054757085,1.576315789,28.10657895
01-Jun-18,11.8,205724,Dallachy No 2,205724,57.66404417,-3.071018416,1.27965587,0,1.98562753,18.66842105,41.32864372,0,7.054757085,1.576315789,28.10657895
01-Jun-18,42.8,327234,Dalmarnock STW,327234,55.8374507,-4.216965486,1.27965587,0,1.98562753,18.66842105,41.32864372,0,7.054757085,1.576315789,28.10657895
01-Jun-18,58.2,14960,Dalnamein,14960,56.79925858,-4.053453634,1.27965587,0,1.98562753,18.66842105,41.32864372,0,7.054757085,1.576315789,28.10657895
01-Jun-18,47.8,302120,Dalwhinnie,302120,56.94069555,-4.238639574,1.27965587,0,1.98562753,18.66842105,41.32864372,0,7.054757085,1.576315789,28.10657895
01-Jun-18,70.6,341338,Deanston RG,341338,56.19223931,-4.077181451,1.27965587,0,1.98562753,18.66842105,41.32864372,0,7.054757085,1.576315789,28.10657895
01-Jun-18,24.8,234198,Delnashaugh,234198,57.39970792,-3.357845061,1.27965587,0,1.98562753,18.66842105,41.32864372,0,7.054757085,1.576315789,28.10657895
01-Jun-18,76.6,454765,Derry Lodge,454765,57.02065155,-3.58738853,1.27965587,0,1.98562753,18.66842105,41.32864372,0,7.054757085,1.576315789,28.10657895
01-Jun-18,48.6,335582,Deskry Shiel,335582,57.18037959,-2.983867766,1.27965587,0,1.98562753,18.66842105,41.32864372,0,7.054757085,1.576315789,28.10657895
01-Jun-18,24.4,115329,Dingwall,115329,57.59992025,-4.446997097,1.27965587,0,1.98562753,18.66842105,41.32864372,0,7.054757085,1.576315789,28.10657895
01-Jun-18,77,133077,Dippen,133077,55.58274848,-5.496523588,1.27965587,0,1.98562753,18.66842105,41.32864372,0,7.054757085,1.576315789,28.10657895
01-Jun-18,27,115217,Dipple,115217,57.61125291,-3.115476523,1.27965587,0,1.98562753,18.66842105,41.32864372,0,7.054757085,1.576315789,28.10657895
01-Jun-18,47.4,234202,Dosmucheran,234202,57.59587318,-5.005770119,1.27965587,0,1.98562753,18.66842105,41.32864372,0,7.054757085,1.576315789,28.10657895
01-Jun-18,49.6,464646,Drum,464646,56.18484641,-3.532323684,1.27965587,0,1.98562753,18.66842105,41.32864372,0,7.054757085,1.576315789,28.10657895
01-Jun-18,132,115557,Drumjohn,115557,55.24992466,-4.32205779,1.27965587,0,1.98562753,18.66842105,41.32864372,0,7.054757085,1.576315789,28.10657895
01-Jun-18,24.8,377134,Drummore of Cantray,377134,57.48325079,-4.006176025,1.27965587,0,1.98562753,18.66842105,41.32864372,0,7.054757085,1.576315789,28.10657895
01-Jun-18,49.6,15216,Dunbar,15216,56.00371307,-2.52752897,1.27965587,0,1.98562753,18.66842105,41.32864372,0,7.054757085,1.576315789,28.10657895
01-Jun-18,73.4,530175,Dundreggan Rain Gauge,530175,57.19161541,-4.767634199,1.27965587,0,1.98562753,18.66842105,41.32864372,0,7.054757085,1.576315789,28.10657895
01-Jun-18,34.2,509196,Dunnottar Radio Station,509196,56.94652496,-2.21202446,1.27965587,0,1.98562753,18.66842105,41.32864372,0,7.054757085,1.576315789,28.10657895
01-Jun-18,150.8,15180,Dunnswood STW (Cumbernauld),15180,55.97221885,-3.954505606,1.27965587,0,1.98562753,18.66842105,41.32864372,0,7.054757085,1.576315789,28.10657895
01-Jun-18,60.8,365257,Dunstaffnage,365257,56.45050242,-5.439870612,1.27965587,0,1.98562753,18.66842105,41.32864372,0,7.054757085,1.576315789,28.10657895
01-Jun-18,26.8,234207,Durkadale,234207,59.10852817,-3.232172832,1.27965587,0,1.98562753,18.66842105,41.32864372,0,7.054757085,1.576315789,28.10657895
01-Jun-18,69.2,115560,East Kilbride,115560,55.75477386,-4.171759227,1.27965587,0,1.98562753,18.66842105,41.32864372,0,7.054757085,1.576315789,28.10657895
01-Jun-18,50.4,15201,Edinburgh RBG (Royal Botanic Garden),15201,55.96662337,-3.212310737,1.27965587,0,1.98562753,18.66842105,41.32864372,0,7.054757085,1.576315789,28.10657895
01-Jun-18,45.4,492363,Einig Wood,492363,57.94421601,-4.764511928,1.27965587,0,1.98562753,18.66842105,41.32864372,0,7.054757085,1.576315789,28.10657895
01-Jun-18,77.8,115562,Eliock,115562,55.34583036,-3.899113859,1.27965587,0,1.98562753,18.66842105,41.32864372,0,7.054757085,1.576315789,28.10657895
01-Jun-18,109.8,15100,Eskdalemuir Observatory,15100,55.31151326,-3.206798775,1.27965587,0,1.98562753,18.66842105,41.32864372,0,7.054757085,1.576315789,28.10657895
01-Jun-18,27.4,115221,Esslemont House,115221,57.36510966,-2.112363417,1.27965587,0,1.98562753,18.66842105,41.32864372,0,7.054757085,1.576315789,28.10657895
01-Jun-18,51.6,115563,Ettrick Bay,115563,55.85650223,-5.145834193,1.27965587,0,1.98562753,18.66842105,41.32864372,0,7.054757085,1.576315789,28.10657895
01-Jun-18,40.2,15151,Fife Airport,15151,56.1816502,-3.222449068,1.27965587,0,1.98562753,18.66842105,41.32864372,0,7.054757085,1.576315789,28.10657895
01-Jun-18,28.4,115339,Flichity,115339,57.33128618,-4.221750189,1.27965587,0,1.98562753,18.66842105,41.32864372,0,7.054757085,1.576315789,28.10657895
01-Jun-18,27.6,336372,Forehill,336372,57.50635026,-1.843281987,1.27965587,0,1.98562753,18.66842105,41.32864372,0,7.054757085,1.576315789,28.10657895
01-Jun-18,26.6,115340,Forsinain,115340,58.41100711,-3.873563607,1.27965587,0,1.98562753,18.66842105,41.32864372,0,7.054757085,1.576315789,28.10657895
01-Jun-18,45.2,14948,Forter,14948,56.76674681,-3.332205729,1.27965587,0,1.98562753,18.66842105,41.32864372,0,7.054757085,1.576315789,28.10657895
01-Jun-18,75.2,115565,Fourmerkland,115565,55.1650788,-3.412506453,1.27965587,0,1.98562753,18.66842105,41.32864372,0,7.054757085,1.576315789,28.10657895
01-Jun-18,156.4,552790,Frenich Farm,552790,56.22694162,-4.56047225,1.27965587,0,1.98562753,18.66842105,41.32864372,0,7.054757085,1.576315789,28.10657895
01-Jun-18,61.2,115223,Gairnshiel,115223,57.09199509,-3.165582141,1.27965587,0,1.98562753,18.66842105,41.32864372,0,7.054757085,1.576315789,28.10657895
01-Jun-18,53.4,14892,Gargunnock,14892,56.13266077,-4.070571402,1.27965587,0,1.98562753,18.66842105,41.32864372,0,7.054757085,1.576315789,28.10657895
01-Jun-18,93.4,301168,Garls Craig,301168,55.36599829,-3.616030256,1.27965587,0,1.98562753,18.66842105,41.32864372,0,7.054757085,1.576315789,28.10657895
01-Jun-18,55.6,464495,Garrogie Lodge,464495,57.17006125,-4.442843871,1.27965587,0,1.98562753,18.66842105,41.32864372,0,7.054757085,1.576315789,28.10657895
01-Jun-18,61.4,115568,Gatelawbridge,115568,55.25076797,-3.730683565,1.27965587,0,1.98562753,18.66842105,41.32864372,0,7.054757085,1.576315789,28.10657895
01-Jun-18,45.8,14916,Gella Bridge,14916,56.77535832,-3.027929218,1.27965587,0,1.98562753,18.66842105,41.32864372,0,7.054757085,1.576315789,28.10657895
01-Jun-18,42.4,474984,Gifford Rain Gauge,474984,55.89043578,-2.768969478,1.27965587,0,1.98562753,18.66842105,41.32864372,0,7.054757085,1.576315789,28.10657895
01-Jun-18,46.6,15114,Gilston,15114,55.80025456,-2.883463821,1.27965587,0,1.98562753,18.66842105,41.32864372,0,7.054757085,1.576315789,28.10657895
01-Jun-18,102.2,15204,Gladhouse Reservoir,15204,55.7784118,-3.117398754,1.27965587,0,1.98562753,18.66842105,41.32864372,0,7.054757085,1.576315789,28.10657895
01-Jun-18,89,335745,Glen Ample,335745,56.35457736,-4.269993694,1.27965587,0,1.98562753,18.66842105,41.32864372,0,7.054757085,1.576315789,28.10657895
01-Jun-18,101.4,115343,Glen Nevis,115343,56.79923208,-5.067543348,1.27965587,0,1.98562753,18.66842105,41.32864372,0,7.054757085,1.576315789,28.10657895
01-Jun-18,168,133088,Glen Strae,133088,56.42522107,-5.000795867,1.27965587,0,1.98562753,18.66842105,41.32864372,0,7.054757085,1.576315789,28.10657895
01-Jun-18,110.4,368490,Glenbreck,368490,55.48202196,-3.477754728,1.27965587,0,1.98562753,18.66842105,41.32864372,0,7.054757085,1.576315789,28.10657895
01-Jun-18,93.4,327238,Glenmavis,327238,55.89359141,-4.013210328,1.27965587,0,1.98562753,18.66842105,41.32864372,0,7.054757085,1.576315789,28.10657895
01-Jun-18,37.2,115225,Glenmore Lodge No 2,115225,57.16421784,-3.677609728,1.27965587,0,1.98562753,18.66842105,41.32864372,0,7.054757085,1.576315789,28.10657895
01-Jun-18,87.2,367371,Glenmuick No2,367371,56.95161175,-3.141253355,1.27965587,0,1.98562753,18.66842105,41.32864372,0,7.054757085,1.576315789,28.10657895
01-Jun-18,47.4,14891,Glenochil,14891,56.14364525,-3.839304837,1.27965587,0,1.98562753,18.66842105,41.32864372,0,7.054757085,1.576315789,28.10657895
01-Jun-18,84.4,464636,Glenquey,464636,56.20739317,-3.642080305,1.27965587,0,1.98562753,18.66842105,41.32864372,0,7.054757085,1.576315789,28.10657895
01-Jun-18,54.6,15196,Gogarbank,15196,55.92834002,-3.342742573,1.27965587,0,1.98562753,18.66842105,41.32864372,0,7.054757085,1.576315789,28.10657895
01-Jun-18,107.2,14984,Gordon Arms,14984,55.51137227,-3.096406906,1.27965587,0,1.98562753,18.66842105,41.32864372,0,7.054757085,1.576315789,28.10657895
01-Jun-18,66.6,327292,Greenock,327292,55.94370132,-4.723991358,1.27965587,0,1.98562753,18.66842105,41.32864372,0,7.054757085,1.576315789,28.10657895
01-Jun-18,38.2,15226,Haddington STW,15226,55.96050923,-2.75022457,1.27965587,0,1.98562753,18.66842105,41.32864372,0,7.054757085,1.576315789,28.10657895
01-Jun-18,11.6,234231,Halkirk,234231,58.5154974,-3.493004244,1.27965587,0,1.98562753,18.66842105,41.32864372,0,7.054757085,1.576315789,28.10657895
01-Jun-18,57.8,335614,Harelaw,335614,55.91651494,-3.086776845,1.27965587,0,1.98562753,18.66842105,41.32864372,0,7.054757085,1.576315789,28.10657895
01-Jun-18,78.8,15200,Harperrig,15200,55.83652095,-3.435270947,1.27965587,0,1.98562753,18.66842105,41.32864372,0,7.054757085,1.576315789,28.10657895
01-Jun-18,28.6,335640,Hatton (Perth),335640,56.52513594,-2.648539891,1.27965587,0,1.98562753,18.66842105,41.32864372,0,7.054757085,1.576315789,28.10657895
01-Jun-18,25.4,115227,Hatton No 2,115227,57.42757524,-1.909678484,1.27965587,0,1.98562753,18.66842105,41.32864372,0,7.054757085,1.576315789,28.10657895
01-Jun-18,54,115582,Hazelwood Cottage,115582,56.26715284,-5.494662553,1.27965587,0,1.98562753,18.66842105,41.32864372,0,7.054757085,1.576315789,28.10657895
01-Jun-18,103,15166,High Corrie (Gartmore),15166,56.1262023,-4.446294544,1.27965587,0,1.98562753,18.66842105,41.32864372,0,7.054757085,1.576315789,28.10657895
01-Jun-18,41,469625,Hunterston Terminal,469625,55.74447583,-4.86116797,1.27965587,0,1.98562753,18.66842105,41.32864372,0,7.054757085,1.576315789,28.10657895
01-Jun-18,108.8,115584,Hydro Gardens Moffat,115584,55.34214596,-3.452988353,1.27965587,0,1.98562753,18.66842105,41.32864372,0,7.054757085,1.576315789,28.10657895
01-Jun-18,87.8,115354,Inchvuilt,115354,57.40830735,-4.957620811,1.27965587,0,1.98562753,18.66842105,41.32864372,0,7.054757085,1.576315789,28.10657895
01-Jun-18,41.2,115585,Ingleston Farm,115585,54.81170556,-4.166358356,1.27965587,0,1.98562753,18.66842105,41.32864372,0,7.054757085,1.576315789,28.10657895
01-Jun-18,19.4,336367,Inshes,336367,57.45203372,-4.184715941,1.27965587,0,1.98562753,18.66842105,41.32864372,0,7.054757085,1.576315789,28.10657895
01-Jun-18,45.2,115356,Inverewe Garden,115356,57.77399694,-5.596995718,1.27965587,0,1.98562753,18.66842105,41.32864372,0,7.054757085,1.576315789,28.10657895
01-Jun-18,55.2,115230,Inverey,115230,56.98569953,-3.500915775,1.27965587,0,1.98562753,18.66842105,41.32864372,0,7.054757085,1.576315789,28.10657895
01-Jun-18,48.4,14926,Invermark,14926,56.91121364,-2.914811966,1.27965587,0,1.98562753,18.66842105,41.32864372,0,7.054757085,1.576315789,28.10657895
01-Jun-18,176.2,115588,Inveruglas,115588,56.2473573,-4.71287133,1.27965587,0,1.98562753,18.66842105,41.32864372,0,7.054757085,1.576315789,28.10657895
01-Jun-18,24.6,367365,Inverurie,367365,57.2583172,-2.362253256,1.27965587,0,1.98562753,18.66842105,41.32864372,0,7.054757085,1.576315789,28.10657895
01-Jun-18,45.4,115589,Irvine Gailes,115589,55.58754361,-4.663320263,1.27965587,0,1.98562753,18.66842105,41.32864372,0,7.054757085,1.576315789,28.10657895
01-Jun-18,57.8,15006,Jedburgh,15006,55.48529122,-2.54668704,1.27965587,0,1.98562753,18.66842105,41.32864372,0,7.054757085,1.576315789,28.10657895
01-Jun-18,26.6,367360,Keith,367360,57.55084994,-2.952079018,1.27965587,0,1.98562753,18.66842105,41.32864372,0,7.054757085,1.576315789,28.10657895
01-Jun-18,74.4,341380,Killermont Raingauge,341380,55.91108458,-4.305014408,1.27965587,0,1.98562753,18.66842105,41.32864372,0,7.054757085,1.576315789,28.10657895
01-Jun-18,87.4,234252,Killilan,234252,57.31881832,-5.424835603,1.27965587,0,1.98562753,18.66842105,41.32864372,0,7.054757085,1.576315789,28.10657895
01-Jun-18,87.6,14933,Killin,14933,56.45816211,-4.331876561,1.27965587,0,1.98562753,18.66842105,41.32864372,0,7.054757085,1.576315789,28.10657895
01-Jun-18,29.2,234253,Kilphedir,234253,58.14138911,-3.702814019,1.27965587,0,1.98562753,18.66842105,41.32864372,0,7.054757085,1.576315789,28.10657895
01-Jun-18,70,14890,Kinbuck,14890,56.2255551,-3.949530685,1.27965587,0,1.98562753,18.66842105,41.32864372,0,7.054757085,1.576315789,28.10657895
01-Jun-18,69.4,14955,Kindrogan,14955,56.74926972,-3.544931301,1.27965587,0,1.98562753,18.66842105,41.32864372,0,7.054757085,1.576315789,28.10657895
01-Jun-18,41.6,473550,Kinghorn Ecology Centre Rain Gauge,473550,56.07462319,-3.193432968,1.27965587,0,1.98562753,18.66842105,41.32864372,0,7.054757085,1.576315789,28.10657895
01-Jun-18,91.6,14972,Kingledores,14972,55.54240926,-3.413947163,1.27965587,0,1.98562753,18.66842105,41.32864372,0,7.054757085,1.576315789,28.10657895
01-Jun-18,45.6,14968,Kinkell Bridge,14968,56.33018709,-3.726992915,1.27965587,0,1.98562753,18.66842105,41.32864372,0,7.054757085,1.576315789,28.10657895
01-Jun-18,62.4,115596,Kinmount House,115596,55.01095443,-3.351411196,1.27965587,0,1.98562753,18.66842105,41.32864372,0,7.054757085,1.576315789,28.10657895
01-Jun-18,42.4,335617,Kirkcaldy,335617,56.11765342,-3.147961765,1.27965587,0,1.98562753,18.66842105,41.32864372,0,7.054757085,1.576315789,28.10657895
01-Jun-18,49.2,504458,Kirkcudbright Raingauge,504458,54.84543419,-4.038511682,1.27965587,0,1.98562753,18.66842105,41.32864372,0,7.054757085,1.576315789,28.10657895
01-Jun-18,17.4,515885,Kirkwall,515885,58.98622363,-2.949352863,1.27965587,0,1.98562753,18.66842105,41.32864372,0,7.054757085,1.576315789,28.10657895
01-Jun-18,35,361048,Kirriemuir STW,361048,56.65983513,-2.999773468,1.27965587,0,1.98562753,18.66842105,41.32864372,0,7.054757085,1.576315789,28.10657895
01-Jun-18,93,115599,Kirriereoch,115599,55.15077902,-4.571934377,1.27965587,0,1.98562753,18.66842105,41.32864372,0,7.054757085,1.576315789,28.10657895
01-Jun-18,80.8,115363,Knockanrock,115363,58.03118174,-5.07294078,1.27965587,0,1.98562753,18.66842105,41.32864372,0,7.054757085,1.576315789,28.10657895
01-Jun-18,34.2,368486,Ladyflat Farm,368486,55.75636712,-2.369501202,1.27965587,0,1.98562753,18.66842105,41.32864372,0,7.054757085,1.576315789,28.10657895
01-Jun-18,69.6,115600,Lagafater Lodge,115600,55.04328363,-4.913741812,1.27965587,0,1.98562753,18.66842105,41.32864372,0,7.054757085,1.576315789,28.10657895
01-Jun-18,61,115603,Lanark STW,115603,55.67436394,-3.795938206,1.27965587,0,1.98562753,18.66842105,41.32864372,0,7.054757085,1.576315789,28.10657895
01-Jun-18,44.6,354621,Langwell Lodge,354621,57.9748238,-5.100589967,1.27965587,0,1.98562753,18.66842105,41.32864372,0,7.054757085,1.576315789,28.10657895
01-Jun-18,36.4,14902,Lathro,14902,56.2213192,-3.42872292,1.27965587,0,1.98562753,18.66842105,41.32864372,0,7.054757085,1.576315789,28.10657895
01-Jun-18,76.6,356217,Laxdale,356217,57.86865846,-6.893581696,1.27965587,0,1.98562753,18.66842105,41.32864372,0,7.054757085,1.576315789,28.10657895
01-Jun-18,47.6,412495,Lecht Weather Station,412495,57.19821668,-3.25888009,1.27965587,0,1.98562753,18.66842105,41.32864372,0,7.054757085,1.576315789,28.10657895
01-Jun-18,36.4,338381,Letham Grange,338381,56.60403394,-2.609495534,1.27965587,0,1.98562753,18.66842105,41.32864372,0,7.054757085,1.576315789,28.10657895
01-Jun-18,54,133106,Lingerton,133106,56.01244753,-5.422443562,1.27965587,0,1.98562753,18.66842105,41.32864372,0,7.054757085,1.576315789,28.10657895
01-Jun-18,40.4,234264,Little Assynt,234264,58.17438109,-5.152302768,1.27965587,0,1.98562753,18.66842105,41.32864372,0,7.054757085,1.576315789,28.10657895
01-Jun-18,79.2,354613,Loch Ailsh Level,354613,58.04827715,-4.855312073,1.27965587,0,1.98562753,18.66842105,41.32864372,0,7.054757085,1.576315789,28.10657895
01-Jun-18,89.4,115368,Loch Droma,115368,57.73309629,-4.936434641,1.27965587,0,1.98562753,18.66842105,41.32864372,0,7.054757085,1.576315789,28.10657895
01-Jun-18,122.4,14910,Loch Katrine,14910,56.22701614,-4.436245731,1.27965587,0,1.98562753,18.66842105,41.32864372,0,7.054757085,1.576315789,28.10657895
01-Jun-18,151,485489,Loch Restil,485489,56.23604254,-4.853369348,1.27965587,0,1.98562753,18.66842105,41.32864372,0,7.054757085,1.576315789,28.10657895
01-Jun-18,50,354622,Loch Tormasad,354622,57.56195723,-7.316740973,1.27965587,0,1.98562753,18.66842105,41.32864372,0,7.054757085,1.576315789,28.10657895
01-Jun-18,104.2,14898,Loch Venachar,14898,56.23425763,-4.256866368,1.27965587,0,1.98562753,18.66842105,41.32864372,0,7.054757085,1.576315789,28.10657895
01-Jun-18,37.2,336847,Lochindorb North,336847,57.41478835,-3.691385645,1.27965587,0,1.98562753,18.66842105,41.32864372,0,7.054757085,1.576315789,28.10657895
01-Jun-18,70,509677,Lochwinnoch,509677,55.78853152,-4.618943233,1.27965587,0,1.98562753,18.66842105,41.32864372,0,7.054757085,1.576315789,28.10657895
01-Jun-18,17.2,473167,Lossiemouth,473167,57.71918475,-3.323337879,1.27965587,0,1.98562753,18.66842105,41.32864372,0,7.054757085,1.576315789,28.10657895
01-Jun-18,66.4,115611,Low Creoch,115611,54.90352684,-4.18922643,1.27965587,0,1.98562753,18.66842105,41.32864372,0,7.054757085,1.576315789,28.10657895
01-Jun-18,43,14865,Luffness,14865,56.02022484,-2.821888561,1.27965587,0,1.98562753,18.66842105,41.32864372,0,7.054757085,1.576315789,28.10657895
01-Jun-18,71.6,115376,Luib,115376,57.5445048,-5.123945869,1.27965587,0,1.98562753,18.66842105,41.32864372,0,7.054757085,1.576315789,28.10657895
01-Jun-18,108.6,327237,Lukeston,327237,55.98447497,-4.240765022,1.27965587,0,1.98562753,18.66842105,41.32864372,0,7.054757085,1.576315789,28.10657895
01-Jun-18,138.8,129558,Luss Raingauge,129558,56.09892116,-4.638863963,1.27965587,0,1.98562753,18.66842105,41.32864372,0,7.054757085,1.576315789,28.10657895
01-Jun-18,62,14974,Lyne Station,14974,55.64733183,-3.25808918,1.27965587,0,1.98562753,18.66842105,41.32864372,0,7.054757085,1.576315789,28.10657895
01-Jun-18,81.6,115616,Meadowfoot,115616,55.40534471,-3.799886702,1.27965587,0,1.98562753,18.66842105,41.32864372,0,7.054757085,1.576315789,28.10657895
01-Jun-18,70.4,115617,Merton Bank Lochmaben,115617,55.13494009,-3.439865821,1.27965587,0,1.98562753,18.66842105,41.32864372,0,7.054757085,1.576315789,28.10657895
01-Jun-18,54.8,354623,Mill Croft,354623,57.2886568,-7.368331541,1.27965587,0,1.98562753,18.66842105,41.32864372,0,7.054757085,1.576315789,28.10657895
01-Jun-18,24.6,205209,Mill Of Gavel,205209,57.55561687,-2.009109628,1.27965587,0,1.98562753,18.66842105,41.32864372,0,7.054757085,1.576315789,28.10657895
01-Jun-18,47.6,115618,Millport,115618,55.74955539,-4.907441406,1.27965587,0,1.98562753,18.66842105,41.32864372,0,7.054757085,1.576315789,28.10657895
01-Jun-18,17,494729,Milton of Evelix TBR,494729,57.89128749,-4.084164503,1.27965587,0,1.98562753,18.66842105,41.32864372,0,7.054757085,1.576315789,28.10657895
01-Jun-18,51.6,338429,Minnigaff,338429,54.9588823,-4.471659058,1.27965587,0,1.98562753,18.66842105,41.32864372,0,7.054757085,1.576315789,28.10657895
01-Jun-18,104.4,14949,Moar,14949,56.57276553,-4.388958153,1.27965587,0,1.98562753,18.66842105,41.32864372,0,7.054757085,1.576315789,28.10657895
01-Jun-18,44.8,115235,Mongour,115235,57.00199506,-2.388582046,1.27965587,0,1.98562753,18.66842105,41.32864372,0,7.054757085,1.576315789,28.10657895
01-Jun-18,36.2,15078,Montrose,15078,56.69908575,-2.491155025,1.27965587,0,1.98562753,18.66842105,41.32864372,0,7.054757085,1.576315789,28.10657895
01-Jun-18,53.8,133115,Monyquil Farm,133115,55.56419458,-5.271931931,1.27965587,0,1.98562753,18.66842105,41.32864372,0,7.054757085,1.576315789,28.10657895
01-Jun-18,26,15022,Mouthbridge,15022,55.77012815,-2.279193263,1.27965587,0,1.98562753,18.66842105,41.32864372,0,7.054757085,1.576315789,28.10657895
01-Jun-18,94.4,115622,Muirkirk STW,115622,55.51335703,-4.096604222,1.27965587,0,1.98562753,18.66842105,41.32864372,0,7.054757085,1.576315789,28.10657895
01-Jun-18,90.2,490986,Muirshiel RG,490986,55.84918458,-4.742664896,1.27965587,0,1.98562753,18.66842105,41.32864372,0,7.054757085,1.576315789,28.10657895
01-Jun-18,19.8,335650,Murton,335650,56.65077608,-2.823539396,1.27965587,0,1.98562753,18.66842105,41.32864372,0,7.054757085,1.576315789,28.10657895
01-Jun-18,31,335651,Mylnefield,335651,56.46017678,-3.075838089,1.27965587,0,1.98562753,18.66842105,41.32864372,0,7.054757085,1.576315789,28.10657895
01-Jun-18,25.2,341224,Nairn Dunbar Golf Course,341224,57.59406094,-3.842759406,1.27965587,0,1.98562753,18.66842105,41.32864372,0,7.054757085,1.576315789,28.10657895
01-Jun-18,105.2,234289,New Kelso,234289,57.42953514,-5.429999168,1.27965587,0,1.98562753,18.66842105,41.32864372,0,7.054757085,1.576315789,28.10657895
01-Jun-18,38,15083,Newton of Falkland,15083,56.25431474,-3.186268594,1.27965587,0,1.98562753,18.66842105,41.32864372,0,7.054757085,1.576315789,28.10657895
01-Jun-18,80.6,115627,Newtonairds,115627,55.10134134,-3.742902191,1.27965587,0,1.98562753,18.66842105,41.32864372,0,7.054757085,1.576315789,28.10657895
01-Jun-18,24.8,335797,Nigg Headworks,335797,57.13140193,-2.061103972,1.27965587,0,1.98562753,18.66842105,41.32864372,0,7.054757085,1.576315789,28.10657895
01-Jun-18,58,335621,North Berwick (Kingston),335621,56.03149667,-2.734270572,1.27965587,0,1.98562753,18.66842105,41.32864372,0,7.054757085,1.576315789,28.10657895
01-Jun-18,47.2,15215,Nunraw Abbey,15215,55.92185875,-2.653499917,1.27965587,0,1.98562753,18.66842105,41.32864372,0,7.054757085,1.576315789,28.10657895
01-Jun-18,30.6,367364,Old Mill of Newton,367364,57.35801578,-2.577016947,1.27965587,0,1.98562753,18.66842105,41.32864372,0,7.054757085,1.576315789,28.10657895
01-Jun-18,34.4,15007,Ormiston Mill,15007,55.54491924,-2.473314492,1.27965587,0,1.98562753,18.66842105,41.32864372,0,7.054757085,1.576315789,28.10657895
01-Jun-18,74,335375,Penwhapple Reservoir,335375,55.23585144,-4.747897404,1.27965587,0,1.98562753,18.66842105,41.32864372,0,7.054757085,1.576315789,28.10657895
01-Jun-18,59.2,341345,Perth Norwich Union,341345,56.38611935,-3.464092253,1.27965587,0,1.98562753,18.66842105,41.32864372,0,7.054757085,1.576315789,28.10657895
01-Jun-18,81.4,115632,Picketlaw Reservoir,115632,55.73611493,-4.281846657,1.27965587,0,1.98562753,18.66842105,41.32864372,0,7.054757085,1.576315789,28.10657895
01-Jun-18,34,486057,Pluscarden Abbey,486057,57.59946107,-3.433170424,1.27965587,0,1.98562753,18.66842105,41.32864372,0,7.054757085,1.576315789,28.10657895
01-Jun-18,62.8,234294,Polhollick,234294,57.05514629,-3.083180673,1.27965587,0,1.98562753,18.66842105,41.32864372,0,7.054757085,1.576315789,28.10657895
01-Jun-18,86.2,234295,Polloch,234295,56.75844885,-5.613663683,1.27965587,0,1.98562753,18.66842105,41.32864372,0,7.054757085,1.576315789,28.10657895
01-Jun-18,56.8,15187,Polmonthill STW,15187,55.99776804,-3.680208641,1.27965587,0,1.98562753,18.66842105,41.32864372,0,7.054757085,1.576315789,28.10657895
01-Jun-18,52.2,115634,Portling,115634,54.87093795,-3.744601282,1.27965587,0,1.98562753,18.66842105,41.32864372,0,7.054757085,1.576315789,28.10657895
01-Jun-18,49.4,15149,Portmoak,15149,56.19239436,-3.334726298,1.27965587,0,1.98562753,18.66842105,41.32864372,0,7.054757085,1.576315789,28.10657895
01-Jun-18,49.6,344764,Prestwick,344764,55.50523784,-4.610940702,1.27965587,0,1.98562753,18.66842105,41.32864372,0,7.054757085,1.576315789,28.10657895
01-Jun-18,23.2,335575,Quarry Head,335575,57.63465034,-2.025944065,1.27965587,0,1.98562753,18.66842105,41.32864372,0,7.054757085,1.576315789,28.10657895
01-Jun-18,57.4,115638,Quinloch Farm,115638,56.0079586,-4.377500029,1.27965587,0,1.98562753,18.66842105,41.32864372,0,7.054757085,1.576315789,28.10657895
01-Jun-18,152,485490,Rest and be Thankful,485490,56.22216848,-4.859016846,1.27965587,0,1.98562753,18.66842105,41.32864372,0,7.054757085,1.576315789,28.10657895
01-Jun-18,36.2,115390,Rhian Bridge,115390,58.11499626,-4.439159665,1.27965587,0,1.98562753,18.66842105,41.32864372,0,7.054757085,1.576315789,28.10657895
01-Jun-18,41.6,336217,Rhiconich,336217,58.42139172,-4.991227379,1.27965587,0,1.98562753,18.66842105,41.32864372,0,7.054757085,1.576315789,28.10657895
01-Jun-18,58,368013,RhynieGS,368013,57.3317252,-2.828953912,1.27965587,0,1.98562753,18.66842105,41.32864372,0,7.054757085,1.576315789,28.10657895
01-Jun-18,86.4,133124,Ross Priory,133124,56.05257642,-4.55746111,1.27965587,0,1.98562753,18.66842105,41.32864372,0,7.054757085,1.576315789,28.10657895
01-Jun-18,32.6,15070,Rossie Farm,15070,56.29912602,-3.202717904,1.27965587,0,1.98562753,18.66842105,41.32864372,0,7.054757085,1.576315789,28.10657895
01-Jun-18,26.2,115239,Rothienorman,115239,57.40900118,-2.466784574,1.27965587,0,1.98562753,18.66842105,41.32864372,0,7.054757085,1.576315789,28.10657895
01-Jun-18,43.6,15155,Saline,15155,56.12224003,-3.585958925,1.27965587,0,1.98562753,18.66842105,41.32864372,0,7.054757085,1.576315789,28.10657895
01-Jun-18,86,115645,Saughall,115645,55.60098751,-4.226431521,1.27965587,0,1.98562753,18.66842105,41.32864372,0,7.054757085,1.576315789,28.10657895
01-Jun-18,68,347562,Scardroy No3,347562,57.51892459,-4.985935657,1.27965587,0,1.98562753,18.66842105,41.32864372,0,7.054757085,1.576315789,28.10657895
01-Jun-18,4.6,234305,Sgodachail,234305,57.89327664,-4.546976399,1.27965587,0,1.98562753,18.66842105,41.32864372,0,7.054757085,1.576315789,28.10657895
01-Jun-18,81.6,14975,Shiplaw,14975,55.72796917,-3.207291434,1.27965587,0,1.98562753,18.66842105,41.32864372,0,7.054757085,1.576315789,28.10657895
01-Jun-18,82,494255,Shotts WWTW,494255,55.81395203,-3.811987501,1.27965587,0,1.98562753,18.66842105,41.32864372,0,7.054757085,1.576315789,28.10657895
01-Jun-18,65.4,464630,Slamannan,464630,55.94205217,-3.832217321,1.27965587,0,1.98562753,18.66842105,41.32864372,0,7.054757085,1.576315789,28.10657895
01-Jun-18,89.6,234314,Sluggan,234314,57.27399763,-3.875997348,1.27965587,0,1.98562753,18.66842105,41.32864372,0,7.054757085,1.576315789,28.10657895
01-Jun-18,80.4,115647,Solwaybank,115647,55.08629786,-3.086937218,1.27965587,0,1.98562753,18.66842105,41.32864372,0,7.054757085,1.576315789,28.10657895
01-Jun-18,37.6,115648,Sorbie,115648,54.79252816,-4.42628864,1.27965587,0,1.98562753,18.66842105,41.32864372,0,7.054757085,1.576315789,28.10657895
01-Jun-18,77.2,115649,South Moorhouse,115649,55.73251416,-4.350287842,1.27965587,0,1.98562753,18.66842105,41.32864372,0,7.054757085,1.576315789,28.10657895
01-Jun-18,60.2,234315,Spey Dam,234315,57.01121062,-4.336367491,1.27965587,0,1.98562753,18.66842105,41.32864372,0,7.054757085,1.576315789,28.10657895
01-Jun-18,35.2,335620,St Monance,335620,56.2047855,-2.78271364,1.27965587,0,1.98562753,18.66842105,41.32864372,0,7.054757085,1.576315789,28.10657895
01-Jun-18,43.4,369551,Stonyford,369551,56.84214794,-2.811870347,1.27965587,0,1.98562753,18.66842105,41.32864372,0,7.054757085,1.576315789,28.10657895
01-Jun-18,91.6,300383,Strathkelvin House,300383,55.94300475,-4.172710018,1.27965587,0,1.98562753,18.66842105,41.32864372,0,7.054757085,1.576315789,28.10657895
01-Jun-18,40,11368,Strathkinness,11368,56.33136897,-2.863918962,1.27965587,0,1.98562753,18.66842105,41.32864372,0,7.054757085,1.576315789,28.10657895
01-Jun-18,19.8,234319,Strathy Bridge,234319,58.55872143,-4.002604762,1.27965587,0,1.98562753,18.66842105,41.32864372,0,7.054757085,1.576315789,28.10657895
01-Jun-18,131.8,15172,Strathyre,15172,56.32054504,-4.328975608,1.27965587,0,1.98562753,18.66842105,41.32864372,0,7.054757085,1.576315789,28.10657895
01-Jun-18,52.4,361047,Strowan,361047,56.36918493,-3.92115763,1.27965587,0,1.98562753,18.66842105,41.32864372,0,7.054757085,1.576315789,28.10657895
01-Jun-18,22.6,511327,Tarland WWTP,511327,57.12504883,-2.851450464,1.27965587,0,1.98562753,18.66842105,41.32864372,0,7.054757085,1.576315789,28.10657895
01-Jun-18,66.6,14999,Teviothead,14999,55.34222734,-2.936481216,1.27965587,0,1.98562753,18.66842105,41.32864372,0,7.054757085,1.576315789,28.10657895
01-Jun-18,44.9,115244,The Lecht,115244,57.20200168,-3.249607166,1.27965587,0,1.98562753,18.66842105,41.32864372,0,7.054757085,1.576315789,28.10657895
01-Jun-18,51.8,15158,Tillicoultry,15158,56.148819,-3.7458095,1.27965587,0,1.98562753,18.66842105,41.32864372,0,7.054757085,1.576315789,28.10657895
01-Jun-18,98.6,115654,Tobermory,115654,56.62026156,-6.080645248,1.27965587,0,1.98562753,18.66842105,41.32864372,0,7.054757085,1.576315789,28.10657895
01-Jun-18,31.6,15190,Torduff,15190,55.8968016,-3.267160193,1.27965587,0,1.98562753,18.66842105,41.32864372,0,7.054757085,1.576315789,28.10657895
01-Jun-18,36.6,234326,Torwinny,234326,57.52198313,-3.446843553,1.27965587,0,1.98562753,18.66842105,41.32864372,0,7.054757085,1.576315789,28.10657895
01-Jun-18,69.4,323188,Townfoot (Glencaple),323188,54.99473579,-3.568993615,1.27965587,0,1.98562753,18.66842105,41.32864372,0,7.054757085,1.576315789,28.10657895
01-Jun-18,37,234327,Tromie Bridge,234327,57.0717185,-3.998638147,1.27965587,0,1.98562753,18.66842105,41.32864372,0,7.054757085,1.576315789,28.10657895
01-Jun-18,31.4,115247,Tulchan,115247,57.39918687,-3.44381882,1.27965587,0,1.98562753,18.66842105,41.32864372,0,7.054757085,1.576315789,28.10657895
01-Jun-18,116.8,506152,Unthank Raingauge,506152,55.24281443,-2.964073002,1.27965587,0,1.98562753,18.66842105,41.32864372,0,7.054757085,1.576315789,28.10657895
01-Jun-18,140.8,116007,Upper Monachlye,116007,56.39271229,-4.463706898,1.27965587,0,1.98562753,18.66842105,41.32864372,0,7.054757085,1.576315789,28.10657895
01-Jun-18,28.4,115406,Urquhart,115406,57.59399199,-4.374371661,1.27965587,0,1.98562753,18.66842105,41.32864372,0,7.054757085,1.576315789,28.10657895
01-Jun-18,28.4,234331,Wardend Bridge,234331,57.58239454,-3.608335401,1.27965587,0,1.98562753,18.66842105,41.32864372,0,7.054757085,1.576315789,28.10657895
01-Jun-18,43.6,369554,Waterside Perth,369554,56.89929851,-2.820760629,1.27965587,0,1.98562753,18.66842105,41.32864372,0,7.054757085,1.576315789,28.10657895
01-Jun-18,52.8,115660,Waulkmill Glen,115660,55.79484353,-4.353627607,1.27965587,0,1.98562753,18.66842105,41.32864372,0,7.054757085,1.576315789,28.10657895
01-Jun-18,37.2,116008,Weisdale Mill,116008,60.2593269,-1.288604022,1.27965587,0,1.98562753,18.66842105,41.32864372,0,7.054757085,1.576315789,28.10657895
01-Jun-18,26.8,115250,Westhill,115250,57.14756943,-2.291989375,1.27965587,0,1.98562753,18.66842105,41.32864372,0,7.054757085,1.576315789,28.10657895
01-Jun-18,80.6,14881,Whitburn,14881,55.87157334,-3.682936938,1.27965587,0,1.98562753,18.66842105,41.32864372,0,7.054757085,1.576315789,28.10657895
01-Jun-18,85.2,502874,White Clauchrie,502874,55.1412921,-4.677220867,1.27965587,0,1.98562753,18.66842105,41.32864372,0,7.054757085,1.576315789,28.10657895
01-Jul-18,0,577951,Carmyllie-Hume Farm,577951,56.57464969,-2.741331877,1.45,0,1.757801418,18.46475177,47.48510638,0,6.079148936,1.626595745,23.13659574
01-Jul-18,0,564863,Tomatin No2,564863,57.33816398,-4.013360208,1.45,0,1.757801418,18.46475177,47.48510638,0,6.079148936,1.626595745,23.13659574
01-Jul-18,0,15208,Dunglass,15208,55.94267446,-2.382881362,1.45,0,1.757801418,18.46475177,47.48510638,0,6.079148936,1.626595745,23.13659574
01-Jul-18,55.6,15018,Abbey St Bathans,15018,55.85329633,-2.387448356,1.45,0,1.757801418,18.46475177,47.48510638,0,6.079148936,1.626595745,23.13659574
01-Jul-18,34,234150,Aberlour,234150,57.48021805,-3.205975095,1.45,0,1.757801418,18.46475177,47.48510638,0,6.079148936,1.626595745,23.13659574
01-Jul-18,73,115301,Affric Lodge,115301,57.26272622,-5.005979754,1.45,0,1.757801418,18.46475177,47.48510638,0,6.079148936,1.626595745,23.13659574
01-Jul-18,46.6,234170,Alford,234170,57.24230294,-2.717123004,1.45,0,1.757801418,18.46475177,47.48510638,0,6.079148936,1.626595745,23.13659574
01-Jul-18,47.6,115302,Allanfearn,115302,57.49914747,-4.151564133,1.45,0,1.757801418,18.46475177,47.48510638,0,6.079148936,1.626595745,23.13659574
01-Jul-18,25.8,234151,Allnabad,234151,58.34717676,-4.644621014,1.45,0,1.757801418,18.46475177,47.48510638,0,6.079148936,1.626595745,23.13659574
01-Jul-18,238.6,115304,Allt Dearg House,115304,57.28490502,-6.187008123,1.45,0,1.757801418,18.46475177,47.48510638,0,6.079148936,1.626595745,23.13659574
01-Jul-18,75.4,115500,Amlaird,115500,55.66964373,-4.413260863,1.45,0,1.757801418,18.46475177,47.48510638,0,6.079148936,1.626595745,23.13659574
01-Jul-18,61,115501,Amod Farm,115501,55.35009103,-5.717857841,1.45,0,1.757801418,18.46475177,47.48510638,0,6.079148936,1.626595745,23.13659574
01-Jul-18,54.4,15198,Annfield,15198,56.06640057,-3.371633207,1.45,0,1.757801418,18.46475177,47.48510638,0,6.079148936,1.626595745,23.13659574
01-Jul-18,91,115506,Ashgrove,115506,55.66308049,-4.757486092,1.45,0,1.757801418,18.46475177,47.48510638,0,6.079148936,1.626595745,23.13659574
01-Jul-18,53.1,491811,Auchdergannach,491811,57.22063972,-3.651932222,1.45,0,1.757801418,18.46475177,47.48510638,0,6.079148936,1.626595745,23.13659574
01-Jul-18,55.2,15163,Auchentroig,15163,56.11221933,-4.342412217,1.45,0,1.757801418,18.46475177,47.48510638,0,6.079148936,1.626595745,23.13659574
01-Jul-18,69.6,14964,Auchinner,14964,56.31678388,-4.112254665,1.45,0,1.757801418,18.46475177,47.48510638,0,6.079148936,1.626595745,23.13659574
01-Jul-18,63.2,14952,Auchnafree,14952,56.47302976,-3.904678161,1.45,0,1.757801418,18.46475177,47.48510638,0,6.079148936,1.626595745,23.13659574
01-Jul-18,36.2,234161,Avochie,234161,57.50564634,-2.782377895,1.45,0,1.757801418,18.46475177,47.48510638,0,6.079148936,1.626595745,23.13659574
01-Jul-18,60.4,322556,Avonbank,322556,55.66347112,-4.051617294,1.45,0,1.757801418,18.46475177,47.48510638,0,6.079148936,1.626595745,23.13659574
01-Jul-18,51.4,15132,Ayton Castle,15132,55.84727645,-2.114611023,1.45,0,1.757801418,18.46475177,47.48510638,0,6.079148936,1.626595745,23.13659574
01-Jul-18,4.8,518147,Badbea,518147,57.86243941,-5.318746664,1.45,0,1.757801418,18.46475177,47.48510638,0,6.079148936,1.626595745,23.13659574
01-Jul-18,63.5,15103,Baddinsgill Reservoir,15103,55.7838821,-3.394584951,1.45,0,1.757801418,18.46475177,47.48510638,0,6.079148936,1.626595745,23.13659574
01-Jul-18,48,501947,Baintown Rain-gauge,501947,56.22101614,-3.042679056,1.45,0,1.757801418,18.46475177,47.48510638,0,6.079148936,1.626595745,23.13659574
01-Jul-18,47.6,517412,Balfron STW,517412,56.06523441,-4.333343318,1.45,0,1.757801418,18.46475177,47.48510638,0,6.079148936,1.626595745,23.13659574
01-Jul-18,75.2,490985,Balgray RG,490985,55.73428872,-4.5878755,1.45,0,1.757801418,18.46475177,47.48510638,0,6.079148936,1.626595745,23.13659574
01-Jul-18,70.2,115202,Balmedie STW,115202,57.25007263,-2.0473803,1.45,0,1.757801418,18.46475177,47.48510638,0,6.079148936,1.626595745,23.13659574
01-Jul-18,47.6,374852,Baluniefield,374852,56.48264025,-2.905576117,1.45,0,1.757801418,18.46475177,47.48510638,0,6.079148936,1.626595745,23.13659574
01-Jul-18,37,14897,Bannockburn,14897,56.09528478,-3.911816854,1.45,0,1.757801418,18.46475177,47.48510638,0,6.079148936,1.626595745,23.13659574
01-Jul-18,34.8,327235,Beltmoss,327235,55.98678855,-4.056528766,1.45,0,1.757801418,18.46475177,47.48510638,0,6.079148936,1.626595745,23.13659574
01-Jul-18,50.3,368536,Biggar Burn,368536,55.65035093,-3.543765278,1.45,0,1.757801418,18.46475177,47.48510638,0,6.079148936,1.626595745,23.13659574
01-Jul-18,63.6,320371,Birkie Hue,320371,58.16554218,-6.740713858,1.45,0,1.757801418,18.46475177,47.48510638,0,6.079148936,1.626595745,23.13659574
01-Jul-18,89.6,115516,Blackdyke Farm,115516,55.52935031,-4.326283061,1.45,0,1.757801418,18.46475177,47.48510638,0,6.079148936,1.626595745,23.13659574
01-Jul-18,44.4,115203,Blackhills No 2,115203,57.61017023,-3.222796593,1.45,0,1.757801418,18.46475177,47.48510638,0,6.079148936,1.626595745,23.13659574
01-Jul-18,41,533744,Boleside,533744,55.59164323,-2.798878774,1.45,0,1.757801418,18.46475177,47.48510638,0,6.079148936,1.626595745,23.13659574
01-Jul-18,47.8,115518,Boreland,115518,55.20254702,-3.320073284,1.45,0,1.757801418,18.46475177,47.48510638,0,6.079148936,1.626595745,23.13659574
01-Jul-18,63.8,101227,Bow Burn - WQMS,101227,55.44068058,-4.498633861,1.45,0,1.757801418,18.46475177,47.48510638,0,6.079148936,1.626595745,23.13659574
01-Jul-18,65.4,15161,Braco (Dunduff),15161,56.28192154,-3.904225732,1.45,0,1.757801418,18.46475177,47.48510638,0,6.079148936,1.626595745,23.13659574
01-Jul-18,109,115315,Braeroy Lodge,115315,56.98511362,-4.738585589,1.45,0,1.757801418,18.46475177,47.48510638,0,6.079148936,1.626595745,23.13659574
01-Jul-18,116.6,133144,Braidlie,133144,55.26142915,-2.824951121,1.45,0,1.757801418,18.46475177,47.48510638,0,6.079148936,1.626595745,23.13659574
01-Jul-18,71.6,115521,Brigton,115521,55.03779638,-4.566314357,1.45,0,1.757801418,18.46475177,47.48510638,0,6.079148936,1.626595745,23.13659574
01-Jul-18,57.4,335609,Broadside,335609,56.02806207,-3.978158502,1.45,0,1.757801418,18.46475177,47.48510638,0,6.079148936,1.626595745,23.13659574
01-Jul-18,73,14987,Brockhoperig,14987,55.4061286,-3.211513384,1.45,0,1.757801418,18.46475177,47.48510638,0,6.079148936,1.626595745,23.13659574
01-Jul-18,58.4,115523,Burnfoot (Hawknest),115523,55.66513433,-3.895712474,1.45,0,1.757801418,18.46475177,47.48510638,0,6.079148936,1.626595745,23.13659574
01-Jul-18,56.2,335612,Bush,335612,55.86190844,-3.206554074,1.45,0,1.757801418,18.46475177,47.48510638,0,6.079148936,1.626595745,23.13659574
01-Jul-18,41.4,234176,Cabrach,234176,57.34816,-3.034565786,1.45,0,1.757801418,18.46475177,47.48510638,0,6.079148936,1.626595745,23.13659574
01-Jul-18,106.6,523676,Cairngorm Raingauge and Snow Scale,523676,57.127702,-3.662955858,1.45,0,1.757801418,18.46475177,47.48510638,0,6.079148936,1.626595745,23.13659574
01-Jul-18,52.4,115526,Caldercruix STW,115526,55.88933558,-3.904553259,1.45,0,1.757801418,18.46475177,47.48510638,0,6.079148936,1.626595745,23.13659574
01-Jul-18,38.6,338380,Cambo Sands,338380,56.3008799,-2.650067453,1.45,0,1.757801418,18.46475177,47.48510638,0,6.079148936,1.626595745,23.13659574
01-Jul-18,95.6,490984,Camphill WTW Raingauge,490984,55.75032761,-4.74461262,1.45,0,1.757801418,18.46475177,47.48510638,0,6.079148936,1.626595745,23.13659574
01-Jul-18,43,306455,Canonbie Raingauge,306455,55.07786221,-2.942088127,1.45,0,1.757801418,18.46475177,47.48510638,0,6.079148936,1.626595745,23.13659574
01-Jul-18,88,576753,Capenoch Raingauge,576753,55.22666817,-3.816934219,1.45,0,1.757801418,18.46475177,47.48510638,0,6.079148936,1.626595745,23.13659574
01-Jul-18,68.4,116042,Castle Kennedy,116042,54.90675279,-4.944931414,1.45,0,1.757801418,18.46475177,47.48510638,0,6.079148936,1.626595745,23.13659574
01-Jul-18,80.8,234183,Charr,234183,56.94084906,-2.619402267,1.45,0,1.757801418,18.46475177,47.48510638,0,6.079148936,1.626595745,23.13659574
01-Jul-18,49,15004,Chesters,15004,55.37862961,-2.589607681,1.45,0,1.757801418,18.46475177,47.48510638,0,6.079148936,1.626595745,23.13659574
01-Jul-18,67.4,335574,Cheyne,335574,56.97482596,-2.266470239,1.45,0,1.757801418,18.46475177,47.48510638,0,6.079148936,1.626595745,23.13659574
01-Jul-18,86.6,115534,Clachan-Seil,115534,56.30375755,-5.601429727,1.45,0,1.757801418,18.46475177,47.48510638,0,6.079148936,1.626595745,23.13659574
01-Jul-18,64.4,499810,Cleuchhead,499810,56.94774412,-2.388756894,1.45,0,1.757801418,18.46475177,47.48510638,0,6.079148936,1.626595745,23.13659574
01-Jul-18,51.8,115318,Coignafearn,115318,57.23285188,-4.139289943,1.45,0,1.757801418,18.46475177,47.48510638,0,6.079148936,1.626595745,23.13659574
01-Jul-18,119.2,115319,Coille Mhorgil,115319,57.0643694,-5.134923813,1.45,0,1.757801418,18.46475177,47.48510638,0,6.079148936,1.626595745,23.13659574
01-Jul-18,64.8,14921,Colliston,14921,56.61000991,-2.637841019,1.45,0,1.757801418,18.46475177,47.48510638,0,6.079148936,1.626595745,23.13659574
01-Jul-18,135.8,552791,Comer Farm,552791,56.20150723,-4.601310376,1.45,0,1.757801418,18.46475177,47.48510638,0,6.079148936,1.626595745,23.13659574
01-Jul-18,38,525510,Comiston Rain Gauge,525510,55.91019401,-3.21598827,1.45,0,1.757801418,18.46475177,47.48510638,0,6.079148936,1.626595745,23.13659574
01-Jul-18,78.2,115322,Corrimony,115322,57.33501743,-4.699729622,1.45,0,1.757801418,18.46475177,47.48510638,0,6.079148936,1.626595745,23.13659574
01-Jul-18,95,336434,Corsock,336434,55.05876816,-3.945715778,1.45,0,1.757801418,18.46475177,47.48510638,0,6.079148936,1.626595745,23.13659574
01-Jul-18,83.4,115541,Craigdarroch,115541,55.196659,-3.981943267,1.45,0,1.757801418,18.46475177,47.48510638,0,6.079148936,1.626595745,23.13659574
01-Jul-18,63.2,513003,Craigenlee Croft Raingauge,513003,54.86294592,-5.075279664,1.45,0,1.757801418,18.46475177,47.48510638,0,6.079148936,1.626595745,23.13659574
01-Jul-18,61.4,234190,Creed Bridge,234190,58.20454028,-6.424227928,1.45,0,1.757801418,18.46475177,47.48510638,0,6.079148936,1.626595745,23.13659574
01-Jul-18,34.8,15224,Crichton,15224,55.84509063,-2.988655721,1.45,0,1.757801418,18.46475177,47.48510638,0,6.079148936,1.626595745,23.13659574
01-Jul-18,37.8,234192,Cullen,234192,57.68712295,-2.83323079,1.45,0,1.757801418,18.46475177,47.48510638,0,6.079148936,1.626595745,23.13659574
01-Jul-18,46.8,498341,Culloden Battlefield,498341,57.47676464,-4.09126842,1.45,0,1.757801418,18.46475177,47.48510638,0,6.079148936,1.626595745,23.13659574
01-Jul-18,52.8,115544,Culzean Castle,115544,55.35068095,-4.791520726,1.45,0,1.757801418,18.46475177,47.48510638,0,6.079148936,1.626595745,23.13659574
01-Jul-18,66.2,115546,Dalbeattie STW,115546,54.92152642,-3.821987578,1.45,0,1.757801418,18.46475177,47.48510638,0,6.079148936,1.626595745,23.13659574
01-Jul-18,73.2,538510,Dalblair,538510,55.44485443,-4.1519297,1.45,0,1.757801418,18.46475177,47.48510638,0,6.079148936,1.626595745,23.13659574
01-Jul-18,33,327232,Daldowie STW,327232,55.83262494,-4.122714806,1.45,0,1.757801418,18.46475177,47.48510638,0,6.079148936,1.626595745,23.13659574
01-Jul-18,32.4,205724,Dallachy No 2,205724,57.66404417,-3.071018416,1.45,0,1.757801418,18.46475177,47.48510638,0,6.079148936,1.626595745,23.13659574
01-Jul-18,55,327234,Dalmarnock STW,327234,55.8374507,-4.216965486,1.45,0,1.757801418,18.46475177,47.48510638,0,6.079148936,1.626595745,23.13659574
01-Jul-18,79.4,14960,Dalnamein,14960,56.79925858,-4.053453634,1.45,0,1.757801418,18.46475177,47.48510638,0,6.079148936,1.626595745,23.13659574
01-Jul-18,66,302120,Dalwhinnie,302120,56.94069555,-4.238639574,1.45,0,1.757801418,18.46475177,47.48510638,0,6.079148936,1.626595745,23.13659574
01-Jul-18,39,341338,Deanston RG,341338,56.19223931,-4.077181451,1.45,0,1.757801418,18.46475177,47.48510638,0,6.079148936,1.626595745,23.13659574
01-Jul-18,44.4,234198,Delnashaugh,234198,57.39970792,-3.357845061,1.45,0,1.757801418,18.46475177,47.48510638,0,6.079148936,1.626595745,23.13659574
01-Jul-18,52.2,454765,Derry Lodge,454765,57.02065155,-3.58738853,1.45,0,1.757801418,18.46475177,47.48510638,0,6.079148936,1.626595745,23.13659574
01-Jul-18,59.6,335582,Deskry Shiel,335582,57.18037959,-2.983867766,1.45,0,1.757801418,18.46475177,47.48510638,0,6.079148936,1.626595745,23.13659574
01-Jul-18,46.6,115329,Dingwall,115329,57.59992025,-4.446997097,1.45,0,1.757801418,18.46475177,47.48510638,0,6.079148936,1.626595745,23.13659574
01-Jul-18,51.6,133077,Dippen,133077,55.58274848,-5.496523588,1.45,0,1.757801418,18.46475177,47.48510638,0,6.079148936,1.626595745,23.13659574
01-Jul-18,36.4,115217,Dipple,115217,57.61125291,-3.115476523,1.45,0,1.757801418,18.46475177,47.48510638,0,6.079148936,1.626595745,23.13659574
01-Jul-18,69.4,234202,Dosmucheran,234202,57.59587318,-5.005770119,1.45,0,1.757801418,18.46475177,47.48510638,0,6.079148936,1.626595745,23.13659574
01-Jul-18,61.6,464646,Drum,464646,56.18484641,-3.532323684,1.45,0,1.757801418,18.46475177,47.48510638,0,6.079148936,1.626595745,23.13659574
01-Jul-18,81.2,115557,Drumjohn,115557,55.24992466,-4.32205779,1.45,0,1.757801418,18.46475177,47.48510638,0,6.079148936,1.626595745,23.13659574
01-Jul-18,55.6,377134,Drummore of Cantray,377134,57.48325079,-4.006176025,1.45,0,1.757801418,18.46475177,47.48510638,0,6.079148936,1.626595745,23.13659574
01-Jul-18,34.2,15216,Dunbar,15216,56.00371307,-2.52752897,1.45,0,1.757801418,18.46475177,47.48510638,0,6.079148936,1.626595745,23.13659574
01-Jul-18,76.2,530175,Dundreggan Rain Gauge,530175,57.19161541,-4.767634199,1.45,0,1.757801418,18.46475177,47.48510638,0,6.079148936,1.626595745,23.13659574
01-Jul-18,56.8,509196,Dunnottar Radio Station,509196,56.94652496,-2.21202446,1.45,0,1.757801418,18.46475177,47.48510638,0,6.079148936,1.626595745,23.13659574
01-Jul-18,42.6,15180,Dunnswood STW (Cumbernauld),15180,55.97221885,-3.954505606,1.45,0,1.757801418,18.46475177,47.48510638,0,6.079148936,1.626595745,23.13659574
01-Jul-18,79.4,365257,Dunstaffnage,365257,56.45050242,-5.439870612,1.45,0,1.757801418,18.46475177,47.48510638,0,6.079148936,1.626595745,23.13659574
01-Jul-18,44.4,234207,Durkadale,234207,59.10852817,-3.232172832,1.45,0,1.757801418,18.46475177,47.48510638,0,6.079148936,1.626595745,23.13659574
01-Jul-18,54.6,115560,East Kilbride,115560,55.75477386,-4.171759227,1.45,0,1.757801418,18.46475177,47.48510638,0,6.079148936,1.626595745,23.13659574
01-Jul-18,31.8,15201,Edinburgh RBG (Royal Botanic Garden),15201,55.96662337,-3.212310737,1.45,0,1.757801418,18.46475177,47.48510638,0,6.079148936,1.626595745,23.13659574
01-Jul-18,42.8,492363,Einig Wood,492363,57.94421601,-4.764511928,1.45,0,1.757801418,18.46475177,47.48510638,0,6.079148936,1.626595745,23.13659574
01-Jul-18,74,115562,Eliock,115562,55.34583036,-3.899113859,1.45,0,1.757801418,18.46475177,47.48510638,0,6.079148936,1.626595745,23.13659574
01-Jul-18,72.6,15100,Eskdalemuir Observatory,15100,55.31151326,-3.206798775,1.45,0,1.757801418,18.46475177,47.48510638,0,6.079148936,1.626595745,23.13659574
01-Jul-18,72.4,115221,Esslemont House,115221,57.36510966,-2.112363417,1.45,0,1.757801418,18.46475177,47.48510638,0,6.079148936,1.626595745,23.13659574
01-Jul-18,76.8,115563,Ettrick Bay,115563,55.85650223,-5.145834193,1.45,0,1.757801418,18.46475177,47.48510638,0,6.079148936,1.626595745,23.13659574
01-Jul-18,49.6,15151,Fife Airport,15151,56.1816502,-3.222449068,1.45,0,1.757801418,18.46475177,47.48510638,0,6.079148936,1.626595745,23.13659574
01-Jul-18,54.2,115339,Flichity,115339,57.33128618,-4.221750189,1.45,0,1.757801418,18.46475177,47.48510638,0,6.079148936,1.626595745,23.13659574
01-Jul-18,58,336372,Forehill,336372,57.50635026,-1.843281987,1.45,0,1.757801418,18.46475177,47.48510638,0,6.079148936,1.626595745,23.13659574
01-Jul-18,57.6,115340,Forsinain,115340,58.41100711,-3.873563607,1.45,0,1.757801418,18.46475177,47.48510638,0,6.079148936,1.626595745,23.13659574
01-Jul-18,58.8,14948,Forter,14948,56.76674681,-3.332205729,1.45,0,1.757801418,18.46475177,47.48510638,0,6.079148936,1.626595745,23.13659574
01-Jul-18,43.4,115565,Fourmerkland,115565,55.1650788,-3.412506453,1.45,0,1.757801418,18.46475177,47.48510638,0,6.079148936,1.626595745,23.13659574
01-Jul-18,103.8,552790,Frenich Farm,552790,56.22694162,-4.56047225,1.45,0,1.757801418,18.46475177,47.48510638,0,6.079148936,1.626595745,23.13659574
01-Jul-18,49.6,115223,Gairnshiel,115223,57.09199509,-3.165582141,1.45,0,1.757801418,18.46475177,47.48510638,0,6.079148936,1.626595745,23.13659574
01-Jul-18,34.8,14892,Gargunnock,14892,56.13266077,-4.070571402,1.45,0,1.757801418,18.46475177,47.48510638,0,6.079148936,1.626595745,23.13659574
01-Jul-18,82.4,301168,Garls Craig,301168,55.36599829,-3.616030256,1.45,0,1.757801418,18.46475177,47.48510638,0,6.079148936,1.626595745,23.13659574
01-Jul-18,68.2,464495,Garrogie Lodge,464495,57.17006125,-4.442843871,1.45,0,1.757801418,18.46475177,47.48510638,0,6.079148936,1.626595745,23.13659574
01-Jul-18,70.8,115568,Gatelawbridge,115568,55.25076797,-3.730683565,1.45,0,1.757801418,18.46475177,47.48510638,0,6.079148936,1.626595745,23.13659574
01-Jul-18,81.6,14916,Gella Bridge,14916,56.77535832,-3.027929218,1.45,0,1.757801418,18.46475177,47.48510638,0,6.079148936,1.626595745,23.13659574
01-Jul-18,32.6,474984,Gifford Rain Gauge,474984,55.89043578,-2.768969478,1.45,0,1.757801418,18.46475177,47.48510638,0,6.079148936,1.626595745,23.13659574
01-Jul-18,38.6,15114,Gilston,15114,55.80025456,-2.883463821,1.45,0,1.757801418,18.46475177,47.48510638,0,6.079148936,1.626595745,23.13659574
01-Jul-18,34.2,15204,Gladhouse Reservoir,15204,55.7784118,-3.117398754,1.45,0,1.757801418,18.46475177,47.48510638,0,6.079148936,1.626595745,23.13659574
01-Jul-18,83,335745,Glen Ample,335745,56.35457736,-4.269993694,1.45,0,1.757801418,18.46475177,47.48510638,0,6.079148936,1.626595745,23.13659574
01-Jul-18,99.6,115343,Glen Nevis,115343,56.79923208,-5.067543348,1.45,0,1.757801418,18.46475177,47.48510638,0,6.079148936,1.626595745,23.13659574
01-Jul-18,137,133088,Glen Strae,133088,56.42522107,-5.000795867,1.45,0,1.757801418,18.46475177,47.48510638,0,6.079148936,1.626595745,23.13659574
01-Jul-18,65.2,368490,Glenbreck,368490,55.48202196,-3.477754728,1.45,0,1.757801418,18.46475177,47.48510638,0,6.079148936,1.626595745,23.13659574
01-Jul-18,36.2,327238,Glenmavis,327238,55.89359141,-4.013210328,1.45,0,1.757801418,18.46475177,47.48510638,0,6.079148936,1.626595745,23.13659574
01-Jul-18,45,115225,Glenmore Lodge No 2,115225,57.16421784,-3.677609728,1.45,0,1.757801418,18.46475177,47.48510638,0,6.079148936,1.626595745,23.13659574
01-Jul-18,85.6,367371,Glenmuick No2,367371,56.95161175,-3.141253355,1.45,0,1.757801418,18.46475177,47.48510638,0,6.079148936,1.626595745,23.13659574
01-Jul-18,33.6,14891,Glenochil,14891,56.14364525,-3.839304837,1.45,0,1.757801418,18.46475177,47.48510638,0,6.079148936,1.626595745,23.13659574
01-Jul-18,56.2,464636,Glenquey,464636,56.20739317,-3.642080305,1.45,0,1.757801418,18.46475177,47.48510638,0,6.079148936,1.626595745,23.13659574
01-Jul-18,40.8,15196,Gogarbank,15196,55.92834002,-3.342742573,1.45,0,1.757801418,18.46475177,47.48510638,0,6.079148936,1.626595745,23.13659574
01-Jul-18,62.4,14984,Gordon Arms,14984,55.51137227,-3.096406906,1.45,0,1.757801418,18.46475177,47.48510638,0,6.079148936,1.626595745,23.13659574
01-Jul-18,79.4,327292,Greenock,327292,55.94370132,-4.723991358,1.45,0,1.757801418,18.46475177,47.48510638,0,6.079148936,1.626595745,23.13659574
01-Jul-18,26.6,15226,Haddington STW,15226,55.96050923,-2.75022457,1.45,0,1.757801418,18.46475177,47.48510638,0,6.079148936,1.626595745,23.13659574
01-Jul-18,50.2,234231,Halkirk,234231,58.5154974,-3.493004244,1.45,0,1.757801418,18.46475177,47.48510638,0,6.079148936,1.626595745,23.13659574
01-Jul-18,25.2,335614,Harelaw,335614,55.91651494,-3.086776845,1.45,0,1.757801418,18.46475177,47.48510638,0,6.079148936,1.626595745,23.13659574
01-Jul-18,53,15200,Harperrig,15200,55.83652095,-3.435270947,1.45,0,1.757801418,18.46475177,47.48510638,0,6.079148936,1.626595745,23.13659574
01-Jul-18,54.6,335640,Hatton (Perth),335640,56.52513594,-2.648539891,1.45,0,1.757801418,18.46475177,47.48510638,0,6.079148936,1.626595745,23.13659574
01-Jul-18,52.4,115227,Hatton No 2,115227,57.42757524,-1.909678484,1.45,0,1.757801418,18.46475177,47.48510638,0,6.079148936,1.626595745,23.13659574
01-Jul-18,44.2,115582,Hazelwood Cottage,115582,56.26715284,-5.494662553,1.45,0,1.757801418,18.46475177,47.48510638,0,6.079148936,1.626595745,23.13659574
01-Jul-18,80.8,15166,High Corrie (Gartmore),15166,56.1262023,-4.446294544,1.45,0,1.757801418,18.46475177,47.48510638,0,6.079148936,1.626595745,23.13659574
01-Jul-18,66.4,469625,Hunterston Terminal,469625,55.74447583,-4.86116797,1.45,0,1.757801418,18.46475177,47.48510638,0,6.079148936,1.626595745,23.13659574
01-Jul-18,74,115584,Hydro Gardens Moffat,115584,55.34214596,-3.452988353,1.45,0,1.757801418,18.46475177,47.48510638,0,6.079148936,1.626595745,23.13659574
01-Jul-18,73.2,115354,Inchvuilt,115354,57.40830735,-4.957620811,1.45,0,1.757801418,18.46475177,47.48510638,0,6.079148936,1.626595745,23.13659574
01-Jul-18,54.6,115585,Ingleston Farm,115585,54.81170556,-4.166358356,1.45,0,1.757801418,18.46475177,47.48510638,0,6.079148936,1.626595745,23.13659574
01-Jul-18,53.6,336367,Inshes,336367,57.45203372,-4.184715941,1.45,0,1.757801418,18.46475177,47.48510638,0,6.079148936,1.626595745,23.13659574
01-Jul-18,107.6,115356,Inverewe Garden,115356,57.77399694,-5.596995718,1.45,0,1.757801418,18.46475177,47.48510638,0,6.079148936,1.626595745,23.13659574
01-Jul-18,49.4,115230,Inverey,115230,56.98569953,-3.500915775,1.45,0,1.757801418,18.46475177,47.48510638,0,6.079148936,1.626595745,23.13659574
01-Jul-18,79,14926,Invermark,14926,56.91121364,-2.914811966,1.45,0,1.757801418,18.46475177,47.48510638,0,6.079148936,1.626595745,23.13659574
01-Jul-18,156.2,115588,Inveruglas,115588,56.2473573,-4.71287133,1.45,0,1.757801418,18.46475177,47.48510638,0,6.079148936,1.626595745,23.13659574
01-Jul-18,53,367365,Inverurie,367365,57.2583172,-2.362253256,1.45,0,1.757801418,18.46475177,47.48510638,0,6.079148936,1.626595745,23.13659574
01-Jul-18,71.4,115589,Irvine Gailes,115589,55.58754361,-4.663320263,1.45,0,1.757801418,18.46475177,47.48510638,0,6.079148936,1.626595745,23.13659574
01-Jul-18,38,15006,Jedburgh,15006,55.48529122,-2.54668704,1.45,0,1.757801418,18.46475177,47.48510638,0,6.079148936,1.626595745,23.13659574
01-Jul-18,43.2,367360,Keith,367360,57.55084994,-2.952079018,1.45,0,1.757801418,18.46475177,47.48510638,0,6.079148936,1.626595745,23.13659574
01-Jul-18,58.2,341380,Killermont Raingauge,341380,55.91108458,-4.305014408,1.45,0,1.757801418,18.46475177,47.48510638,0,6.079148936,1.626595745,23.13659574
01-Jul-18,94,234252,Killilan,234252,57.31881832,-5.424835603,1.45,0,1.757801418,18.46475177,47.48510638,0,6.079148936,1.626595745,23.13659574
01-Jul-18,79.2,14933,Killin,14933,56.45816211,-4.331876561,1.45,0,1.757801418,18.46475177,47.48510638,0,6.079148936,1.626595745,23.13659574
01-Jul-18,44.6,234253,Kilphedir,234253,58.14138911,-3.702814019,1.45,0,1.757801418,18.46475177,47.48510638,0,6.079148936,1.626595745,23.13659574
01-Jul-18,42.8,14890,Kinbuck,14890,56.2255551,-3.949530685,1.45,0,1.757801418,18.46475177,47.48510638,0,6.079148936,1.626595745,23.13659574
01-Jul-18,76.4,14955,Kindrogan,14955,56.74926972,-3.544931301,1.45,0,1.757801418,18.46475177,47.48510638,0,6.079148936,1.626595745,23.13659574
01-Jul-18,36.6,473550,Kinghorn Ecology Centre Rain Gauge,473550,56.07462319,-3.193432968,1.45,0,1.757801418,18.46475177,47.48510638,0,6.079148936,1.626595745,23.13659574
01-Jul-18,50.2,14972,Kingledores,14972,55.54240926,-3.413947163,1.45,0,1.757801418,18.46475177,47.48510638,0,6.079148936,1.626595745,23.13659574
01-Jul-18,45.8,14968,Kinkell Bridge,14968,56.33018709,-3.726992915,1.45,0,1.757801418,18.46475177,47.48510638,0,6.079148936,1.626595745,23.13659574
01-Jul-18,49.6,115596,Kinmount House,115596,55.01095443,-3.351411196,1.45,0,1.757801418,18.46475177,47.48510638,0,6.079148936,1.626595745,23.13659574
01-Jul-18,38,335617,Kirkcaldy,335617,56.11765342,-3.147961765,1.45,0,1.757801418,18.46475177,47.48510638,0,6.079148936,1.626595745,23.13659574
01-Jul-18,80.4,504458,Kirkcudbright Raingauge,504458,54.84543419,-4.038511682,1.45,0,1.757801418,18.46475177,47.48510638,0,6.079148936,1.626595745,23.13659574
01-Jul-18,41,515885,Kirkwall,515885,58.98622363,-2.949352863,1.45,0,1.757801418,18.46475177,47.48510638,0,6.079148936,1.626595745,23.13659574
01-Jul-18,61.6,361048,Kirriemuir STW,361048,56.65983513,-2.999773468,1.45,0,1.757801418,18.46475177,47.48510638,0,6.079148936,1.626595745,23.13659574
01-Jul-18,100.8,115599,Kirriereoch,115599,55.15077902,-4.571934377,1.45,0,1.757801418,18.46475177,47.48510638,0,6.079148936,1.626595745,23.13659574
01-Jul-18,87.4,115363,Knockanrock,115363,58.03118174,-5.07294078,1.45,0,1.757801418,18.46475177,47.48510638,0,6.079148936,1.626595745,23.13659574
01-Jul-18,60.2,368486,Ladyflat Farm,368486,55.75636712,-2.369501202,1.45,0,1.757801418,18.46475177,47.48510638,0,6.079148936,1.626595745,23.13659574
01-Jul-18,88.8,115600,Lagafater Lodge,115600,55.04328363,-4.913741812,1.45,0,1.757801418,18.46475177,47.48510638,0,6.079148936,1.626595745,23.13659574
01-Jul-18,48.8,115603,Lanark STW,115603,55.67436394,-3.795938206,1.45,0,1.757801418,18.46475177,47.48510638,0,6.079148936,1.626595745,23.13659574
01-Jul-18,81.2,354621,Langwell Lodge,354621,57.9748238,-5.100589967,1.45,0,1.757801418,18.46475177,47.48510638,0,6.079148936,1.626595745,23.13659574
01-Jul-18,48.4,14902,Lathro,14902,56.2213192,-3.42872292,1.45,0,1.757801418,18.46475177,47.48510638,0,6.079148936,1.626595745,23.13659574
01-Jul-18,103,356217,Laxdale,356217,57.86865846,-6.893581696,1.45,0,1.757801418,18.46475177,47.48510638,0,6.079148936,1.626595745,23.13659574
01-Jul-18,70.6,412495,Lecht Weather Station,412495,57.19821668,-3.25888009,1.45,0,1.757801418,18.46475177,47.48510638,0,6.079148936,1.626595745,23.13659574
01-Jul-18,61,338381,Letham Grange,338381,56.60403394,-2.609495534,1.45,0,1.757801418,18.46475177,47.48510638,0,6.079148936,1.626595745,23.13659574
01-Jul-18,102.8,133106,Lingerton,133106,56.01244753,-5.422443562,1.45,0,1.757801418,18.46475177,47.48510638,0,6.079148936,1.626595745,23.13659574
01-Jul-18,74.2,234264,Little Assynt,234264,58.17438109,-5.152302768,1.45,0,1.757801418,18.46475177,47.48510638,0,6.079148936,1.626595745,23.13659574
01-Jul-18,53,354613,Loch Ailsh Level,354613,58.04827715,-4.855312073,1.45,0,1.757801418,18.46475177,47.48510638,0,6.079148936,1.626595745,23.13659574
01-Jul-18,78.8,115368,Loch Droma,115368,57.73309629,-4.936434641,1.45,0,1.757801418,18.46475177,47.48510638,0,6.079148936,1.626595745,23.13659574
01-Jul-18,101.2,14910,Loch Katrine,14910,56.22701614,-4.436245731,1.45,0,1.757801418,18.46475177,47.48510638,0,6.079148936,1.626595745,23.13659574
01-Jul-18,161,485489,Loch Restil,485489,56.23604254,-4.853369348,1.45,0,1.757801418,18.46475177,47.48510638,0,6.079148936,1.626595745,23.13659574
01-Jul-18,119.8,354622,Loch Tormasad,354622,57.56195723,-7.316740973,1.45,0,1.757801418,18.46475177,47.48510638,0,6.079148936,1.626595745,23.13659574
01-Jul-18,77,14898,Loch Venachar,14898,56.23425763,-4.256866368,1.45,0,1.757801418,18.46475177,47.48510638,0,6.079148936,1.626595745,23.13659574
01-Jul-18,54.2,336847,Lochindorb North,336847,57.41478835,-3.691385645,1.45,0,1.757801418,18.46475177,47.48510638,0,6.079148936,1.626595745,23.13659574
01-Jul-18,73.6,509677,Lochwinnoch,509677,55.78853152,-4.618943233,1.45,0,1.757801418,18.46475177,47.48510638,0,6.079148936,1.626595745,23.13659574
01-Jul-18,20.4,473167,Lossiemouth,473167,57.71918475,-3.323337879,1.45,0,1.757801418,18.46475177,47.48510638,0,6.079148936,1.626595745,23.13659574
01-Jul-18,81.4,115611,Low Creoch,115611,54.90352684,-4.18922643,1.45,0,1.757801418,18.46475177,47.48510638,0,6.079148936,1.626595745,23.13659574
01-Jul-18,21,14865,Luffness,14865,56.02022484,-2.821888561,1.45,0,1.757801418,18.46475177,47.48510638,0,6.079148936,1.626595745,23.13659574
01-Jul-18,88.8,115376,Luib,115376,57.5445048,-5.123945869,1.45,0,1.757801418,18.46475177,47.48510638,0,6.079148936,1.626595745,23.13659574
01-Jul-18,52.4,327237,Lukeston,327237,55.98447497,-4.240765022,1.45,0,1.757801418,18.46475177,47.48510638,0,6.079148936,1.626595745,23.13659574
01-Jul-18,124,129558,Luss Raingauge,129558,56.09892116,-4.638863963,1.45,0,1.757801418,18.46475177,47.48510638,0,6.079148936,1.626595745,23.13659574
01-Jul-18,44.2,14974,Lyne Station,14974,55.64733183,-3.25808918,1.45,0,1.757801418,18.46475177,47.48510638,0,6.079148936,1.626595745,23.13659574
01-Jul-18,59.2,115616,Meadowfoot,115616,55.40534471,-3.799886702,1.45,0,1.757801418,18.46475177,47.48510638,0,6.079148936,1.626595745,23.13659574
01-Jul-18,48.4,115617,Merton Bank Lochmaben,115617,55.13494009,-3.439865821,1.45,0,1.757801418,18.46475177,47.48510638,0,6.079148936,1.626595745,23.13659574
01-Jul-18,106.2,354623,Mill Croft,354623,57.2886568,-7.368331541,1.45,0,1.757801418,18.46475177,47.48510638,0,6.079148936,1.626595745,23.13659574
01-Jul-18,58.2,205209,Mill Of Gavel,205209,57.55561687,-2.009109628,1.45,0,1.757801418,18.46475177,47.48510638,0,6.079148936,1.626595745,23.13659574
01-Jul-18,79,115618,Millport,115618,55.74955539,-4.907441406,1.45,0,1.757801418,18.46475177,47.48510638,0,6.079148936,1.626595745,23.13659574
01-Jul-18,53.2,494729,Milton of Evelix TBR,494729,57.89128749,-4.084164503,1.45,0,1.757801418,18.46475177,47.48510638,0,6.079148936,1.626595745,23.13659574
01-Jul-18,62.4,338429,Minnigaff,338429,54.9588823,-4.471659058,1.45,0,1.757801418,18.46475177,47.48510638,0,6.079148936,1.626595745,23.13659574
01-Jul-18,7.4,14949,Moar,14949,56.57276553,-4.388958153,1.45,0,1.757801418,18.46475177,47.48510638,0,6.079148936,1.626595745,23.13659574
01-Jul-18,75.8,115235,Mongour,115235,57.00199506,-2.388582046,1.45,0,1.757801418,18.46475177,47.48510638,0,6.079148936,1.626595745,23.13659574
01-Jul-18,59.4,15078,Montrose,15078,56.69908575,-2.491155025,1.45,0,1.757801418,18.46475177,47.48510638,0,6.079148936,1.626595745,23.13659574
01-Jul-18,90.8,133115,Monyquil Farm,133115,55.56419458,-5.271931931,1.45,0,1.757801418,18.46475177,47.48510638,0,6.079148936,1.626595745,23.13659574
01-Jul-18,64.2,15022,Mouthbridge,15022,55.77012815,-2.279193263,1.45,0,1.757801418,18.46475177,47.48510638,0,6.079148936,1.626595745,23.13659574
01-Jul-18,69,115622,Muirkirk STW,115622,55.51335703,-4.096604222,1.45,0,1.757801418,18.46475177,47.48510638,0,6.079148936,1.626595745,23.13659574
01-Jul-18,109.2,490986,Muirshiel RG,490986,55.84918458,-4.742664896,1.45,0,1.757801418,18.46475177,47.48510638,0,6.079148936,1.626595745,23.13659574
01-Jul-18,65.8,335650,Murton,335650,56.65077608,-2.823539396,1.45,0,1.757801418,18.46475177,47.48510638,0,6.079148936,1.626595745,23.13659574
01-Jul-18,59.8,335651,Mylnefield,335651,56.46017678,-3.075838089,1.45,0,1.757801418,18.46475177,47.48510638,0,6.079148936,1.626595745,23.13659574
01-Jul-18,46.4,341224,Nairn Dunbar Golf Course,341224,57.59406094,-3.842759406,1.45,0,1.757801418,18.46475177,47.48510638,0,6.079148936,1.626595745,23.13659574
01-Jul-18,111.4,234289,New Kelso,234289,57.42953514,-5.429999168,1.45,0,1.757801418,18.46475177,47.48510638,0,6.079148936,1.626595745,23.13659574
01-Jul-18,42.4,15083,Newton of Falkland,15083,56.25431474,-3.186268594,1.45,0,1.757801418,18.46475177,47.48510638,0,6.079148936,1.626595745,23.13659574
01-Jul-18,91,115627,Newtonairds,115627,55.10134134,-3.742902191,1.45,0,1.757801418,18.46475177,47.48510638,0,6.079148936,1.626595745,23.13659574
01-Jul-18,75.2,335797,Nigg Headworks,335797,57.13140193,-2.061103972,1.45,0,1.757801418,18.46475177,47.48510638,0,6.079148936,1.626595745,23.13659574
01-Jul-18,31,335621,North Berwick (Kingston),335621,56.03149667,-2.734270572,1.45,0,1.757801418,18.46475177,47.48510638,0,6.079148936,1.626595745,23.13659574
01-Jul-18,38,15215,Nunraw Abbey,15215,55.92185875,-2.653499917,1.45,0,1.757801418,18.46475177,47.48510638,0,6.079148936,1.626595745,23.13659574
01-Jul-18,60.2,367364,Old Mill of Newton,367364,57.35801578,-2.577016947,1.45,0,1.757801418,18.46475177,47.48510638,0,6.079148936,1.626595745,23.13659574
01-Jul-18,41.2,15007,Ormiston Mill,15007,55.54491924,-2.473314492,1.45,0,1.757801418,18.46475177,47.48510638,0,6.079148936,1.626595745,23.13659574
01-Jul-18,74,335375,Penwhapple Reservoir,335375,55.23585144,-4.747897404,1.45,0,1.757801418,18.46475177,47.48510638,0,6.079148936,1.626595745,23.13659574
01-Jul-18,43.8,341345,Perth Norwich Union,341345,56.38611935,-3.464092253,1.45,0,1.757801418,18.46475177,47.48510638,0,6.079148936,1.626595745,23.13659574
01-Jul-18,80.8,115632,Picketlaw Reservoir,115632,55.73611493,-4.281846657,1.45,0,1.757801418,18.46475177,47.48510638,0,6.079148936,1.626595745,23.13659574
01-Jul-18,37.4,486057,Pluscarden Abbey,486057,57.59946107,-3.433170424,1.45,0,1.757801418,18.46475177,47.48510638,0,6.079148936,1.626595745,23.13659574
01-Jul-18,49.4,234294,Polhollick,234294,57.05514629,-3.083180673,1.45,0,1.757801418,18.46475177,47.48510638,0,6.079148936,1.626595745,23.13659574
01-Jul-18,120.2,234295,Polloch,234295,56.75844885,-5.613663683,1.45,0,1.757801418,18.46475177,47.48510638,0,6.079148936,1.626595745,23.13659574
01-Jul-18,47.8,15187,Polmonthill STW,15187,55.99776804,-3.680208641,1.45,0,1.757801418,18.46475177,47.48510638,0,6.079148936,1.626595745,23.13659574
01-Jul-18,60.8,115634,Portling,115634,54.87093795,-3.744601282,1.45,0,1.757801418,18.46475177,47.48510638,0,6.079148936,1.626595745,23.13659574
01-Jul-18,48.6,15149,Portmoak,15149,56.19239436,-3.334726298,1.45,0,1.757801418,18.46475177,47.48510638,0,6.079148936,1.626595745,23.13659574
01-Jul-18,69.8,344764,Prestwick,344764,55.50523784,-4.610940702,1.45,0,1.757801418,18.46475177,47.48510638,0,6.079148936,1.626595745,23.13659574
01-Jul-18,50.2,335575,Quarry Head,335575,57.63465034,-2.025944065,1.45,0,1.757801418,18.46475177,47.48510638,0,6.079148936,1.626595745,23.13659574
01-Jul-18,59.2,115638,Quinloch Farm,115638,56.0079586,-4.377500029,1.45,0,1.757801418,18.46475177,47.48510638,0,6.079148936,1.626595745,23.13659574
01-Jul-18,143.8,485490,Rest and be Thankful,485490,56.22216848,-4.859016846,1.45,0,1.757801418,18.46475177,47.48510638,0,6.079148936,1.626595745,23.13659574
01-Jul-18,43.4,115390,Rhian Bridge,115390,58.11499626,-4.439159665,1.45,0,1.757801418,18.46475177,47.48510638,0,6.079148936,1.626595745,23.13659574
01-Jul-18,59,336217,Rhiconich,336217,58.42139172,-4.991227379,1.45,0,1.757801418,18.46475177,47.48510638,0,6.079148936,1.626595745,23.13659574
01-Jul-18,49.6,368013,RhynieGS,368013,57.3317252,-2.828953912,1.45,0,1.757801418,18.46475177,47.48510638,0,6.079148936,1.626595745,23.13659574
01-Jul-18,98.2,133124,Ross Priory,133124,56.05257642,-4.55746111,1.45,0,1.757801418,18.46475177,47.48510638,0,6.079148936,1.626595745,23.13659574
01-Jul-18,51.8,15070,Rossie Farm,15070,56.29912602,-3.202717904,1.45,0,1.757801418,18.46475177,47.48510638,0,6.079148936,1.626595745,23.13659574
01-Jul-18,59,115239,Rothienorman,115239,57.40900118,-2.466784574,1.45,0,1.757801418,18.46475177,47.48510638,0,6.079148936,1.626595745,23.13659574
01-Jul-18,34.4,15155,Saline,15155,56.12224003,-3.585958925,1.45,0,1.757801418,18.46475177,47.48510638,0,6.079148936,1.626595745,23.13659574
01-Jul-18,90.8,115645,Saughall,115645,55.60098751,-4.226431521,1.45,0,1.757801418,18.46475177,47.48510638,0,6.079148936,1.626595745,23.13659574
01-Jul-18,91.4,347562,Scardroy No3,347562,57.51892459,-4.985935657,1.45,0,1.757801418,18.46475177,47.48510638,0,6.079148936,1.626595745,23.13659574
01-Jul-18,51.2,234305,Sgodachail,234305,57.89327664,-4.546976399,1.45,0,1.757801418,18.46475177,47.48510638,0,6.079148936,1.626595745,23.13659574
01-Jul-18,44.8,14975,Shiplaw,14975,55.72796917,-3.207291434,1.45,0,1.757801418,18.46475177,47.48510638,0,6.079148936,1.626595745,23.13659574
01-Jul-18,48,494255,Shotts WWTW,494255,55.81395203,-3.811987501,1.45,0,1.757801418,18.46475177,47.48510638,0,6.079148936,1.626595745,23.13659574
01-Jul-18,68.4,464630,Slamannan,464630,55.94205217,-3.832217321,1.45,0,1.757801418,18.46475177,47.48510638,0,6.079148936,1.626595745,23.13659574
01-Jul-18,58.4,234314,Sluggan,234314,57.27399763,-3.875997348,1.45,0,1.757801418,18.46475177,47.48510638,0,6.079148936,1.626595745,23.13659574
01-Jul-18,66.2,115647,Solwaybank,115647,55.08629786,-3.086937218,1.45,0,1.757801418,18.46475177,47.48510638,0,6.079148936,1.626595745,23.13659574
01-Jul-18,48.4,115648,Sorbie,115648,54.79252816,-4.42628864,1.45,0,1.757801418,18.46475177,47.48510638,0,6.079148936,1.626595745,23.13659574
01-Jul-18,92.2,115649,South Moorhouse,115649,55.73251416,-4.350287842,1.45,0,1.757801418,18.46475177,47.48510638,0,6.079148936,1.626595745,23.13659574
01-Jul-18,55.4,234315,Spey Dam,234315,57.01121062,-4.336367491,1.45,0,1.757801418,18.46475177,47.48510638,0,6.079148936,1.626595745,23.13659574
01-Jul-18,45,335620,St Monance,335620,56.2047855,-2.78271364,1.45,0,1.757801418,18.46475177,47.48510638,0,6.079148936,1.626595745,23.13659574
01-Jul-18,86.2,369551,Stonyford,369551,56.84214794,-2.811870347,1.45,0,1.757801418,18.46475177,47.48510638,0,6.079148936,1.626595745,23.13659574
01-Jul-18,29.6,300383,Strathkelvin House,300383,55.94300475,-4.172710018,1.45,0,1.757801418,18.46475177,47.48510638,0,6.079148936,1.626595745,23.13659574
01-Jul-18,54.4,11368,Strathkinness,11368,56.33136897,-2.863918962,1.45,0,1.757801418,18.46475177,47.48510638,0,6.079148936,1.626595745,23.13659574
01-Jul-18,43,234319,Strathy Bridge,234319,58.55872143,-4.002604762,1.45,0,1.757801418,18.46475177,47.48510638,0,6.079148936,1.626595745,23.13659574
01-Jul-18,77.4,15172,Strathyre,15172,56.32054504,-4.328975608,1.45,0,1.757801418,18.46475177,47.48510638,0,6.079148936,1.626595745,23.13659574
01-Jul-18,40.4,361047,Strowan,361047,56.36918493,-3.92115763,1.45,0,1.757801418,18.46475177,47.48510638,0,6.079148936,1.626595745,23.13659574
01-Jul-18,40.8,511327,Tarland WWTP,511327,57.12504883,-2.851450464,1.45,0,1.757801418,18.46475177,47.48510638,0,6.079148936,1.626595745,23.13659574
01-Jul-18,91.2,14999,Teviothead,14999,55.34222734,-2.936481216,1.45,0,1.757801418,18.46475177,47.48510638,0,6.079148936,1.626595745,23.13659574
01-Jul-18,68.1,115244,The Lecht,115244,57.20200168,-3.249607166,1.45,0,1.757801418,18.46475177,47.48510638,0,6.079148936,1.626595745,23.13659574
01-Jul-18,62,15158,Tillicoultry,15158,56.148819,-3.7458095,1.45,0,1.757801418,18.46475177,47.48510638,0,6.079148936,1.626595745,23.13659574
01-Jul-18,112,115654,Tobermory,115654,56.62026156,-6.080645248,1.45,0,1.757801418,18.46475177,47.48510638,0,6.079148936,1.626595745,23.13659574
01-Jul-18,47.2,15190,Torduff,15190,55.8968016,-3.267160193,1.45,0,1.757801418,18.46475177,47.48510638,0,6.079148936,1.626595745,23.13659574
01-Jul-18,34,234326,Torwinny,234326,57.52198313,-3.446843553,1.45,0,1.757801418,18.46475177,47.48510638,0,6.079148936,1.626595745,23.13659574
01-Jul-18,67.8,323188,Townfoot (Glencaple),323188,54.99473579,-3.568993615,1.45,0,1.757801418,18.46475177,47.48510638,0,6.079148936,1.626595745,23.13659574
01-Jul-18,39.4,234327,Tromie Bridge,234327,57.0717185,-3.998638147,1.45,0,1.757801418,18.46475177,47.48510638,0,6.079148936,1.626595745,23.13659574
01-Jul-18,39.2,115247,Tulchan,115247,57.39918687,-3.44381882,1.45,0,1.757801418,18.46475177,47.48510638,0,6.079148936,1.626595745,23.13659574
01-Jul-18,75.4,506152,Unthank Raingauge,506152,55.24281443,-2.964073002,1.45,0,1.757801418,18.46475177,47.48510638,0,6.079148936,1.626595745,23.13659574
01-Jul-18,103.8,116007,Upper Monachlye,116007,56.39271229,-4.463706898,1.45,0,1.757801418,18.46475177,47.48510638,0,6.079148936,1.626595745,23.13659574
01-Jul-18,55,115406,Urquhart,115406,57.59399199,-4.374371661,1.45,0,1.757801418,18.46475177,47.48510638,0,6.079148936,1.626595745,23.13659574
01-Jul-18,36.6,234331,Wardend Bridge,234331,57.58239454,-3.608335401,1.45,0,1.757801418,18.46475177,47.48510638,0,6.079148936,1.626595745,23.13659574
01-Jul-18,76.8,369554,Waterside Perth,369554,56.89929851,-2.820760629,1.45,0,1.757801418,18.46475177,47.48510638,0,6.079148936,1.626595745,23.13659574
01-Jul-18,72.6,115660,Waulkmill Glen,115660,55.79484353,-4.353627607,1.45,0,1.757801418,18.46475177,47.48510638,0,6.079148936,1.626595745,23.13659574
01-Jul-18,66.6,116008,Weisdale Mill,116008,60.2593269,-1.288604022,1.45,0,1.757801418,18.46475177,47.48510638,0,6.079148936,1.626595745,23.13659574
01-Jul-18,79.4,115250,Westhill,115250,57.14756943,-2.291989375,1.45,0,1.757801418,18.46475177,47.48510638,0,6.079148936,1.626595745,23.13659574
01-Jul-18,54,14881,Whitburn,14881,55.87157334,-3.682936938,1.45,0,1.757801418,18.46475177,47.48510638,0,6.079148936,1.626595745,23.13659574
01-Jul-18,86.4,502874,White Clauchrie,502874,55.1412921,-4.677220867,1.45,0,1.757801418,18.46475177,47.48510638,0,6.079148936,1.626595745,23.13659574
01-Aug-18,0,577951,Carmyllie-Hume Farm,577951,56.57464969,-2.741331877,1.413439636,0,1.924373576,24.39711465,44.48534548,0,5.032498102,1.414502658,21.33272589
01-Aug-18,0,564863,Tomatin No2,564863,57.33816398,-4.013360208,1.413439636,0,1.924373576,24.39711465,44.48534548,0,5.032498102,1.414502658,21.33272589
01-Aug-18,0,15208,Dunglass,15208,55.94267446,-2.382881362,1.413439636,0,1.924373576,24.39711465,44.48534548,0,5.032498102,1.414502658,21.33272589
01-Aug-18,36,15018,Abbey St Bathans,15018,55.85329633,-2.387448356,1.413439636,0,1.924373576,24.39711465,44.48534548,0,5.032498102,1.414502658,21.33272589
01-Aug-18,34.6,234150,Aberlour,234150,57.48021805,-3.205975095,1.413439636,0,1.924373576,24.39711465,44.48534548,0,5.032498102,1.414502658,21.33272589
01-Aug-18,71.8,115301,Affric Lodge,115301,57.26272622,-5.005979754,1.413439636,0,1.924373576,24.39711465,44.48534548,0,5.032498102,1.414502658,21.33272589
01-Aug-18,41.2,234170,Alford,234170,57.24230294,-2.717123004,1.413439636,0,1.924373576,24.39711465,44.48534548,0,5.032498102,1.414502658,21.33272589
01-Aug-18,33.2,115302,Allanfearn,115302,57.49914747,-4.151564133,1.413439636,0,1.924373576,24.39711465,44.48534548,0,5.032498102,1.414502658,21.33272589
01-Aug-18,86.2,234151,Allnabad,234151,58.34717676,-4.644621014,1.413439636,0,1.924373576,24.39711465,44.48534548,0,5.032498102,1.414502658,21.33272589
01-Aug-18,334.8,115304,Allt Dearg House,115304,57.28490502,-6.187008123,1.413439636,0,1.924373576,24.39711465,44.48534548,0,5.032498102,1.414502658,21.33272589
01-Aug-18,103.8,115500,Amlaird,115500,55.66964373,-4.413260863,1.413439636,0,1.924373576,24.39711465,44.48534548,0,5.032498102,1.414502658,21.33272589
01-Aug-18,181,115501,Amod Farm,115501,55.35009103,-5.717857841,1.413439636,0,1.924373576,24.39711465,44.48534548,0,5.032498102,1.414502658,21.33272589
01-Aug-18,65,15198,Annfield,15198,56.06640057,-3.371633207,1.413439636,0,1.924373576,24.39711465,44.48534548,0,5.032498102,1.414502658,21.33272589
01-Aug-18,107.2,115506,Ashgrove,115506,55.66308049,-4.757486092,1.413439636,0,1.924373576,24.39711465,44.48534548,0,5.032498102,1.414502658,21.33272589
01-Aug-18,31.9,491811,Auchdergannach,491811,57.22063972,-3.651932222,1.413439636,0,1.924373576,24.39711465,44.48534548,0,5.032498102,1.414502658,21.33272589
01-Aug-18,100.6,15163,Auchentroig,15163,56.11221933,-4.342412217,1.413439636,0,1.924373576,24.39711465,44.48534548,0,5.032498102,1.414502658,21.33272589
01-Aug-18,104.4,14964,Auchinner,14964,56.31678388,-4.112254665,1.413439636,0,1.924373576,24.39711465,44.48534548,0,5.032498102,1.414502658,21.33272589
01-Aug-18,70.8,14952,Auchnafree,14952,56.47302976,-3.904678161,1.413439636,0,1.924373576,24.39711465,44.48534548,0,5.032498102,1.414502658,21.33272589
01-Aug-18,32.8,234161,Avochie,234161,57.50564634,-2.782377895,1.413439636,0,1.924373576,24.39711465,44.48534548,0,5.032498102,1.414502658,21.33272589
01-Aug-18,86.6,322556,Avonbank,322556,55.66347112,-4.051617294,1.413439636,0,1.924373576,24.39711465,44.48534548,0,5.032498102,1.414502658,21.33272589
01-Aug-18,62.2,15132,Ayton Castle,15132,55.84727645,-2.114611023,1.413439636,0,1.924373576,24.39711465,44.48534548,0,5.032498102,1.414502658,21.33272589
01-Aug-18,108.8,518147,Badbea,518147,57.86243941,-5.318746664,1.413439636,0,1.924373576,24.39711465,44.48534548,0,5.032498102,1.414502658,21.33272589
01-Aug-18,98.3,15103,Baddinsgill Reservoir,15103,55.7838821,-3.394584951,1.413439636,0,1.924373576,24.39711465,44.48534548,0,5.032498102,1.414502658,21.33272589
01-Aug-18,65.8,501947,Baintown Rain-gauge,501947,56.22101614,-3.042679056,1.413439636,0,1.924373576,24.39711465,44.48534548,0,5.032498102,1.414502658,21.33272589
01-Aug-18,65,517412,Balfron STW,517412,56.06523441,-4.333343318,1.413439636,0,1.924373576,24.39711465,44.48534548,0,5.032498102,1.414502658,21.33272589
01-Aug-18,110.6,490985,Balgray RG,490985,55.73428872,-4.5878755,1.413439636,0,1.924373576,24.39711465,44.48534548,0,5.032498102,1.414502658,21.33272589
01-Aug-18,32,115202,Balmedie STW,115202,57.25007263,-2.0473803,1.413439636,0,1.924373576,24.39711465,44.48534548,0,5.032498102,1.414502658,21.33272589
01-Aug-18,58.4,374852,Baluniefield,374852,56.48264025,-2.905576117,1.413439636,0,1.924373576,24.39711465,44.48534548,0,5.032498102,1.414502658,21.33272589
01-Aug-18,59,14897,Bannockburn,14897,56.09528478,-3.911816854,1.413439636,0,1.924373576,24.39711465,44.48534548,0,5.032498102,1.414502658,21.33272589
01-Aug-18,118.8,327235,Beltmoss,327235,55.98678855,-4.056528766,1.413439636,0,1.924373576,24.39711465,44.48534548,0,5.032498102,1.414502658,21.33272589
01-Aug-18,62.7,368536,Biggar Burn,368536,55.65035093,-3.543765278,1.413439636,0,1.924373576,24.39711465,44.48534548,0,5.032498102,1.414502658,21.33272589
01-Aug-18,86.6,320371,Birkie Hue,320371,58.16554218,-6.740713858,1.413439636,0,1.924373576,24.39711465,44.48534548,0,5.032498102,1.414502658,21.33272589
01-Aug-18,123.6,115516,Blackdyke Farm,115516,55.52935031,-4.326283061,1.413439636,0,1.924373576,24.39711465,44.48534548,0,5.032498102,1.414502658,21.33272589
01-Aug-18,28.6,115203,Blackhills No 2,115203,57.61017023,-3.222796593,1.413439636,0,1.924373576,24.39711465,44.48534548,0,5.032498102,1.414502658,21.33272589
01-Aug-18,64.6,533744,Boleside,533744,55.59164323,-2.798878774,1.413439636,0,1.924373576,24.39711465,44.48534548,0,5.032498102,1.414502658,21.33272589
01-Aug-18,146.8,115518,Boreland,115518,55.20254702,-3.320073284,1.413439636,0,1.924373576,24.39711465,44.48534548,0,5.032498102,1.414502658,21.33272589
01-Aug-18,68.4,101227,Bow Burn - WQMS,101227,55.44068058,-4.498633861,1.413439636,0,1.924373576,24.39711465,44.48534548,0,5.032498102,1.414502658,21.33272589
01-Aug-18,92.2,15161,Braco (Dunduff),15161,56.28192154,-3.904225732,1.413439636,0,1.924373576,24.39711465,44.48534548,0,5.032498102,1.414502658,21.33272589
01-Aug-18,97.8,115315,Braeroy Lodge,115315,56.98511362,-4.738585589,1.413439636,0,1.924373576,24.39711465,44.48534548,0,5.032498102,1.414502658,21.33272589
01-Aug-18,109.2,133144,Braidlie,133144,55.26142915,-2.824951121,1.413439636,0,1.924373576,24.39711465,44.48534548,0,5.032498102,1.414502658,21.33272589
01-Aug-18,125.6,115521,Brigton,115521,55.03779638,-4.566314357,1.413439636,0,1.924373576,24.39711465,44.48534548,0,5.032498102,1.414502658,21.33272589
01-Aug-18,138.2,335609,Broadside,335609,56.02806207,-3.978158502,1.413439636,0,1.924373576,24.39711465,44.48534548,0,5.032498102,1.414502658,21.33272589
01-Aug-18,116,14987,Brockhoperig,14987,55.4061286,-3.211513384,1.413439636,0,1.924373576,24.39711465,44.48534548,0,5.032498102,1.414502658,21.33272589
01-Aug-18,69,115523,Burnfoot (Hawknest),115523,55.66513433,-3.895712474,1.413439636,0,1.924373576,24.39711465,44.48534548,0,5.032498102,1.414502658,21.33272589
01-Aug-18,75,335612,Bush,335612,55.86190844,-3.206554074,1.413439636,0,1.924373576,24.39711465,44.48534548,0,5.032498102,1.414502658,21.33272589
01-Aug-18,42.8,234176,Cabrach,234176,57.34816,-3.034565786,1.413439636,0,1.924373576,24.39711465,44.48534548,0,5.032498102,1.414502658,21.33272589
01-Aug-18,70.9,523676,Cairngorm Raingauge and Snow Scale,523676,57.127702,-3.662955858,1.413439636,0,1.924373576,24.39711465,44.48534548,0,5.032498102,1.414502658,21.33272589
01-Aug-18,90.8,115526,Caldercruix STW,115526,55.88933558,-3.904553259,1.413439636,0,1.924373576,24.39711465,44.48534548,0,5.032498102,1.414502658,21.33272589
01-Aug-18,55,338380,Cambo Sands,338380,56.3008799,-2.650067453,1.413439636,0,1.924373576,24.39711465,44.48534548,0,5.032498102,1.414502658,21.33272589
01-Aug-18,181,490984,Camphill WTW Raingauge,490984,55.75032761,-4.74461262,1.413439636,0,1.924373576,24.39711465,44.48534548,0,5.032498102,1.414502658,21.33272589
01-Aug-18,154.6,306455,Canonbie Raingauge,306455,55.07786221,-2.942088127,1.413439636,0,1.924373576,24.39711465,44.48534548,0,5.032498102,1.414502658,21.33272589
01-Aug-18,72.6,576753,Capenoch Raingauge,576753,55.22666817,-3.816934219,1.413439636,0,1.924373576,24.39711465,44.48534548,0,5.032498102,1.414502658,21.33272589
01-Aug-18,83.2,116042,Castle Kennedy,116042,54.90675279,-4.944931414,1.413439636,0,1.924373576,24.39711465,44.48534548,0,5.032498102,1.414502658,21.33272589
01-Aug-18,64.8,234183,Charr,234183,56.94084906,-2.619402267,1.413439636,0,1.924373576,24.39711465,44.48534548,0,5.032498102,1.414502658,21.33272589
01-Aug-18,40,15004,Chesters,15004,55.37862961,-2.589607681,1.413439636,0,1.924373576,24.39711465,44.48534548,0,5.032498102,1.414502658,21.33272589
01-Aug-18,50,335574,Cheyne,335574,56.97482596,-2.266470239,1.413439636,0,1.924373576,24.39711465,44.48534548,0,5.032498102,1.414502658,21.33272589
01-Aug-18,150,115534,Clachan-Seil,115534,56.30375755,-5.601429727,1.413439636,0,1.924373576,24.39711465,44.48534548,0,5.032498102,1.414502658,21.33272589
01-Aug-18,54.6,499810,Cleuchhead,499810,56.94774412,-2.388756894,1.413439636,0,1.924373576,24.39711465,44.48534548,0,5.032498102,1.414502658,21.33272589
01-Aug-18,44.8,115318,Coignafearn,115318,57.23285188,-4.139289943,1.413439636,0,1.924373576,24.39711465,44.48534548,0,5.032498102,1.414502658,21.33272589
01-Aug-18,153.8,115319,Coille Mhorgil,115319,57.0643694,-5.134923813,1.413439636,0,1.924373576,24.39711465,44.48534548,0,5.032498102,1.414502658,21.33272589
01-Aug-18,47.2,14921,Colliston,14921,56.61000991,-2.637841019,1.413439636,0,1.924373576,24.39711465,44.48534548,0,5.032498102,1.414502658,21.33272589
01-Aug-18,159,552791,Comer Farm,552791,56.20150723,-4.601310376,1.413439636,0,1.924373576,24.39711465,44.48534548,0,5.032498102,1.414502658,21.33272589
01-Aug-18,64.8,525510,Comiston Rain Gauge,525510,55.91019401,-3.21598827,1.413439636,0,1.924373576,24.39711465,44.48534548,0,5.032498102,1.414502658,21.33272589
01-Aug-18,33,115322,Corrimony,115322,57.33501743,-4.699729622,1.413439636,0,1.924373576,24.39711465,44.48534548,0,5.032498102,1.414502658,21.33272589
01-Aug-18,136.4,336434,Corsock,336434,55.05876816,-3.945715778,1.413439636,0,1.924373576,24.39711465,44.48534548,0,5.032498102,1.414502658,21.33272589
01-Aug-18,111.2,115541,Craigdarroch,115541,55.196659,-3.981943267,1.413439636,0,1.924373576,24.39711465,44.48534548,0,5.032498102,1.414502658,21.33272589
01-Aug-18,101,513003,Craigenlee Croft Raingauge,513003,54.86294592,-5.075279664,1.413439636,0,1.924373576,24.39711465,44.48534548,0,5.032498102,1.414502658,21.33272589
01-Aug-18,84,234190,Creed Bridge,234190,58.20454028,-6.424227928,1.413439636,0,1.924373576,24.39711465,44.48534548,0,5.032498102,1.414502658,21.33272589
01-Aug-18,58.8,15224,Crichton,15224,55.84509063,-2.988655721,1.413439636,0,1.924373576,24.39711465,44.48534548,0,5.032498102,1.414502658,21.33272589
01-Aug-18,35.4,234192,Cullen,234192,57.68712295,-2.83323079,1.413439636,0,1.924373576,24.39711465,44.48534548,0,5.032498102,1.414502658,21.33272589
01-Aug-18,31.8,498341,Culloden Battlefield,498341,57.47676464,-4.09126842,1.413439636,0,1.924373576,24.39711465,44.48534548,0,5.032498102,1.414502658,21.33272589
01-Aug-18,99.4,115544,Culzean Castle,115544,55.35068095,-4.791520726,1.413439636,0,1.924373576,24.39711465,44.48534548,0,5.032498102,1.414502658,21.33272589
01-Aug-18,110.2,115546,Dalbeattie STW,115546,54.92152642,-3.821987578,1.413439636,0,1.924373576,24.39711465,44.48534548,0,5.032498102,1.414502658,21.33272589
01-Aug-18,125,538510,Dalblair,538510,55.44485443,-4.1519297,1.413439636,0,1.924373576,24.39711465,44.48534548,0,5.032498102,1.414502658,21.33272589
01-Aug-18,63,327232,Daldowie STW,327232,55.83262494,-4.122714806,1.413439636,0,1.924373576,24.39711465,44.48534548,0,5.032498102,1.414502658,21.33272589
01-Aug-18,34.8,205724,Dallachy No 2,205724,57.66404417,-3.071018416,1.413439636,0,1.924373576,24.39711465,44.48534548,0,5.032498102,1.414502658,21.33272589
01-Aug-18,68.4,327234,Dalmarnock STW,327234,55.8374507,-4.216965486,1.413439636,0,1.924373576,24.39711465,44.48534548,0,5.032498102,1.414502658,21.33272589
01-Aug-18,74.4,14960,Dalnamein,14960,56.79925858,-4.053453634,1.413439636,0,1.924373576,24.39711465,44.48534548,0,5.032498102,1.414502658,21.33272589
01-Aug-18,48,302120,Dalwhinnie,302120,56.94069555,-4.238639574,1.413439636,0,1.924373576,24.39711465,44.48534548,0,5.032498102,1.414502658,21.33272589
01-Aug-18,77,341338,Deanston RG,341338,56.19223931,-4.077181451,1.413439636,0,1.924373576,24.39711465,44.48534548,0,5.032498102,1.414502658,21.33272589
01-Aug-18,40,234198,Delnashaugh,234198,57.39970792,-3.357845061,1.413439636,0,1.924373576,24.39711465,44.48534548,0,5.032498102,1.414502658,21.33272589
01-Aug-18,45.6,454765,Derry Lodge,454765,57.02065155,-3.58738853,1.413439636,0,1.924373576,24.39711465,44.48534548,0,5.032498102,1.414502658,21.33272589
01-Aug-18,44.4,335582,Deskry Shiel,335582,57.18037959,-2.983867766,1.413439636,0,1.924373576,24.39711465,44.48534548,0,5.032498102,1.414502658,21.33272589
01-Aug-18,21.8,115329,Dingwall,115329,57.59992025,-4.446997097,1.413439636,0,1.924373576,24.39711465,44.48534548,0,5.032498102,1.414502658,21.33272589
01-Aug-18,171.8,133077,Dippen,133077,55.58274848,-5.496523588,1.413439636,0,1.924373576,24.39711465,44.48534548,0,5.032498102,1.414502658,21.33272589
01-Aug-18,37.6,115217,Dipple,115217,57.61125291,-3.115476523,1.413439636,0,1.924373576,24.39711465,44.48534548,0,5.032498102,1.414502658,21.33272589
01-Aug-18,95.2,234202,Dosmucheran,234202,57.59587318,-5.005770119,1.413439636,0,1.924373576,24.39711465,44.48534548,0,5.032498102,1.414502658,21.33272589
01-Aug-18,93.8,464646,Drum,464646,56.18484641,-3.532323684,1.413439636,0,1.924373576,24.39711465,44.48534548,0,5.032498102,1.414502658,21.33272589
01-Aug-18,101.8,115557,Drumjohn,115557,55.24992466,-4.32205779,1.413439636,0,1.924373576,24.39711465,44.48534548,0,5.032498102,1.414502658,21.33272589
01-Aug-18,35.4,377134,Drummore of Cantray,377134,57.48325079,-4.006176025,1.413439636,0,1.924373576,24.39711465,44.48534548,0,5.032498102,1.414502658,21.33272589
01-Aug-18,71.2,15216,Dunbar,15216,56.00371307,-2.52752897,1.413439636,0,1.924373576,24.39711465,44.48534548,0,5.032498102,1.414502658,21.33272589
01-Aug-18,57.2,530175,Dundreggan Rain Gauge,530175,57.19161541,-4.767634199,1.413439636,0,1.924373576,24.39711465,44.48534548,0,5.032498102,1.414502658,21.33272589
01-Aug-18,53.2,509196,Dunnottar Radio Station,509196,56.94652496,-2.21202446,1.413439636,0,1.924373576,24.39711465,44.48534548,0,5.032498102,1.414502658,21.33272589
01-Aug-18,88.6,15180,Dunnswood STW (Cumbernauld),15180,55.97221885,-3.954505606,1.413439636,0,1.924373576,24.39711465,44.48534548,0,5.032498102,1.414502658,21.33272589
01-Aug-18,125.4,365257,Dunstaffnage,365257,56.45050242,-5.439870612,1.413439636,0,1.924373576,24.39711465,44.48534548,0,5.032498102,1.414502658,21.33272589
01-Aug-18,50.4,234207,Durkadale,234207,59.10852817,-3.232172832,1.413439636,0,1.924373576,24.39711465,44.48534548,0,5.032498102,1.414502658,21.33272589
01-Aug-18,75.2,115560,East Kilbride,115560,55.75477386,-4.171759227,1.413439636,0,1.924373576,24.39711465,44.48534548,0,5.032498102,1.414502658,21.33272589
01-Aug-18,69.2,15201,Edinburgh RBG (Royal Botanic Garden),15201,55.96662337,-3.212310737,1.413439636,0,1.924373576,24.39711465,44.48534548,0,5.032498102,1.414502658,21.33272589
01-Aug-18,82,492363,Einig Wood,492363,57.94421601,-4.764511928,1.413439636,0,1.924373576,24.39711465,44.48534548,0,5.032498102,1.414502658,21.33272589
01-Aug-18,66.6,115562,Eliock,115562,55.34583036,-3.899113859,1.413439636,0,1.924373576,24.39711465,44.48534548,0,5.032498102,1.414502658,21.33272589
01-Aug-18,160.2,15100,Eskdalemuir Observatory,15100,55.31151326,-3.206798775,1.413439636,0,1.924373576,24.39711465,44.48534548,0,5.032498102,1.414502658,21.33272589
01-Aug-18,37.6,115221,Esslemont House,115221,57.36510966,-2.112363417,1.413439636,0,1.924373576,24.39711465,44.48534548,0,5.032498102,1.414502658,21.33272589
01-Aug-18,132.8,115563,Ettrick Bay,115563,55.85650223,-5.145834193,1.413439636,0,1.924373576,24.39711465,44.48534548,0,5.032498102,1.414502658,21.33272589
01-Aug-18,71.6,15151,Fife Airport,15151,56.1816502,-3.222449068,1.413439636,0,1.924373576,24.39711465,44.48534548,0,5.032498102,1.414502658,21.33272589
01-Aug-18,46.2,115339,Flichity,115339,57.33128618,-4.221750189,1.413439636,0,1.924373576,24.39711465,44.48534548,0,5.032498102,1.414502658,21.33272589
01-Aug-18,57.8,336372,Forehill,336372,57.50635026,-1.843281987,1.413439636,0,1.924373576,24.39711465,44.48534548,0,5.032498102,1.414502658,21.33272589
01-Aug-18,53.6,115340,Forsinain,115340,58.41100711,-3.873563607,1.413439636,0,1.924373576,24.39711465,44.48534548,0,5.032498102,1.414502658,21.33272589
01-Aug-18,55.8,14948,Forter,14948,56.76674681,-3.332205729,1.413439636,0,1.924373576,24.39711465,44.48534548,0,5.032498102,1.414502658,21.33272589
01-Aug-18,127.8,115565,Fourmerkland,115565,55.1650788,-3.412506453,1.413439636,0,1.924373576,24.39711465,44.48534548,0,5.032498102,1.414502658,21.33272589
01-Aug-18,126.2,552790,Frenich Farm,552790,56.22694162,-4.56047225,1.413439636,0,1.924373576,24.39711465,44.48534548,0,5.032498102,1.414502658,21.33272589
01-Aug-18,47.8,115223,Gairnshiel,115223,57.09199509,-3.165582141,1.413439636,0,1.924373576,24.39711465,44.48534548,0,5.032498102,1.414502658,21.33272589
01-Aug-18,62.4,14892,Gargunnock,14892,56.13266077,-4.070571402,1.413439636,0,1.924373576,24.39711465,44.48534548,0,5.032498102,1.414502658,21.33272589
